stop_id,stop_name,stop_lat,stop_lon
"8220B007612","Davenport Hotel Merrion Street","53.3413467794909","-6.25052948036745"
"8220DB000002","Rotunda, Parnell Square West","53.3522443611383","-6.26372321891887"
"8220DB000003","Rotunda, Granby Place","53.3523085514325","-6.26381074216825"
"8220DB000004","Rotunda, Rotunda Hospital","53.352574513185","-6.26417548603797"
"8220DB000006","Rotunda, Saint Martin's Chapel","53.3527493357046","-6.26445380396434"
"8220DB000007","Rotunda, Rotunda Hospital","53.3528409105784","-6.26457026121749"
"8220DB000008","Rotunda, Parnell Square West","53.3532722714822","-6.265183676574"
"8220DB000010","Rotunda, Parnell Square West","53.3533921036473","-6.26538912389954"
"8220DB000011","Phibsborough, Upper Dorset St (St.Joseph's Parade)","53.3569583030018","-6.26462831066928"
"8220DB000012","Phibsborough, Upper Dorset St (St.Joseph's Parade)","53.356804940545","-6.26458947136391"
"8220DB000014","Phibsborough, Lower Dorset Street","53.3585312378758","-6.26277650570871"
"8220DB000015","Ballybough, Lower Dorset Street","53.3600885841359","-6.2610904703136"
"8220DB000016","Cabra, John Paul Park","53.3663915571411","-6.30561418352737"
"8220DB000017","Drumcondra, Outside Train Station","53.362917073275","-6.25843591733399"
"8220DB000018","Drumcondra (Dublin), Drumcondra Road","53.3658559259166","-6.25595682067835"
"8220DB000019","Drumcondra, Lower Drumcondra Road","53.3671437314429","-6.25551350128863"
"8220DB000021","Drumcondra (Dublin), Saint Patrick's College","53.3701011992947","-6.25431059904442"
"8220DB000022","Drumcondra (Dublin), Home Farm Road (Achill Road)","53.3735036097406","-6.25280375269006"
"8220DB000023","Drumcondra (Dublin), Ferguson Road","53.3742282800791","-6.256261004167"
"8220DB000024","Drumcondra (Dublin), Home Farm Road","53.3751331588841","-6.26037234812319"
"8220DB000025","Glasnevin, Rathlin Road","53.3758994661474","-6.26361773641709"
"8220DB000027","Glasnevin, Ballymun Road (Griffith Avenue)","53.3794389600107","-6.26658526126003"
"8220DB000028","Wadelai, Glasnevin Tennis Club","53.381578637628","-6.26600227077738"
"8220DB000029","Whitehall (Dublin City), Ballymun Road","53.3834882529457","-6.26566910125417"
"8220DB000030","Cabra, Pope John Paul II Park","53.3703319001931","-6.30460116922913"
"8220DB000031","Wadelai, Maolbuille Road","53.3860332259144","-6.268858077275"
"8220DB000032","Wadelai, Saint Pappin's Road","53.3861955680738","-6.2713772010414"
"8220DB000033","Wadelai, Glasnevin Drive","53.3887179243058","-6.27177114122451"
"8220DB000035","Wadelai, Dean Swift Road","53.3862067871013","-6.270910692541"
"8220DB000036","Wadelai, Saint Pappin's Road","53.386126850411","-6.26787706978339"
"8220DB000037","Whitehall (Dublin City), DCU Ballymun Road","53.385346401194","-6.26488698131794"
"8220DB000038","Whitehall (Dublin City), Ballymun Road","53.3822365941636","-6.26550952120506"
"8220DB000039","Glasnevin, Ballymun Road (Griffith Avenue)","53.3804141869323","-6.26565875906589"
"8220DB000040","Glasnevin, Mobhi Road","53.3766607654507","-6.26466896852795"
"8220DB000041","Drumcondra (Dublin), Home Farm Road","53.3755592683258","-6.26185800624669"
"8220DB000042","Drumcondra (Dublin), Ferguson Road","53.3746502734575","-6.25746118972134"
"8220DB000043","Drumcondra (Dublin), Home Farm Road (Achill Road)","53.3738612202268","-6.25390131043392"
"8220DB000044","Drumcondra (Dublin), Homefarm Road","53.3730174091204","-6.25213230324296"
"8220DB000045","Drumcondra, Upper Drumcondra Road","53.3699901109629","-6.25408971716991"
"8220DB000046","Drumcondra (Dublin), Botanic Avenue","53.3671507382056","-6.25537796909961"
"8220DB000047","Drumcondra, Near Train Station","53.3639161189927","-6.25729825652802"
"8220DB000048","Summerhill (Dublin City), Lower Drumcondra Road","53.362329033001","-6.25879046525832"
"8220DB000049","Ballybough, Lower Dorset Street","53.3600318427208","-6.26089745848732"
"8220DB000051","Upper Dorset St (Temple Street)","53.3579898458103","-6.26324925121845"
"8220DB000052","Phibsborough, Upper Dorset St (St.Joseph's Parade)","53.3567946474934","-6.26449974769728"
"8220DB000053","Phibsborough, North Circular Road (Lower Dorset Street)","53.3600144884223","-6.26279128910753"
"8220DB000054","Phibsborough, North Circular Road (Mater Hospital)","53.3601537090985","-6.2655652200906"
"8220DB000055","Phibsborough, Mater Hospital Mortuary","53.3604116029234","-6.26846957982236"
"8220DB000056","Phibsborough, Cabra Road (North Circular Road)","53.3607597246041","-6.2763736549141"
"8220DB000057","Phibsborough, Cabra Road (North Circular Road)","53.3608162242919","-6.27655167484331"
"8220DB000058","Cabra East, Cabra Road (Charleville Road)","53.3609462458913","-6.28120420246723"
"8220DB000059","Cabra East, Cabra Road (near Annamoe Terrace)","53.3610180101964","-6.28494256312827"
"8220DB000060","Cabra East, Cabra Road (Quarry Road)","53.3612792196482","-6.28936450005445"
"8220DB000063","Cabra East, Faussagh Avenue","53.366792437293","-6.29275010805854"
"8220DB000064","Cabra, Faussagh Avenue (Church)","53.3670885820667","-6.29523278220336"
"8220DB000065","Cabra, Dingle Road","53.3672546442387","-6.29805127641299"
"8220DB000066","Cabra, Faussagh Avenue (Dingle Road)","53.3672749883703","-6.30074034554992"
"8220DB000068","Cabra, Ventry Drive","53.369077508046","-6.30424523466641"
"8220DB000069","Cabra, Ventry Park Estate","53.3713925640935","-6.30334171689525"
"8220DB000071","Cabra, Pope John Paul II Park","53.3702576893289","-6.30443880530351"
"8220DB000072","Cabra, Ventry Drive","53.368969926025","-6.30426453600163"
"8220DB000073","Cabra, Faussagh Avenue (Dingle Road)","53.3673915527258","-6.3007206786557"
"8220DB000074","Cabra, Faussagh Avenue (Church)","53.3672002385634","-6.29549881400778"
"8220DB000075","Cabra East, Faussagh Avenue","53.3665472298946","-6.29131731936794"
"8220DB000077","Cabra East, Cabra Road (Quarry Road)","53.3613091819025","-6.28957365234688"
"8220DB000078","Cabra East, Cabra Road (near Annamoe Terrace)","53.3611492151906","-6.28406583527474"
"8220DB000079","Cabra East, Cabra Road (Charleville Road)","53.3610212509762","-6.28079550562153"
"8220DB000080","Phibsborough, Cabra Road (North Circular Road)","53.360862963273","-6.27605396152962"
"8220DB000081","Phibsborough, North Circular Road (Phibsborough Road)","53.3608757479059","-6.27196662691607"
"8220DB000082","Phibsborough, Royal Canal Bank","53.3607977959156","-6.27154908016382"
"8220DB000083","Phibsborough, North Circular Road (Mater Hospital)","53.3602792498223","-6.26554509616275"
"8220DB000084","Phibsborough, North Circular Road (Leo Street)","53.3601625615962","-6.26370178059102"
"8220DB000085","Drumcondra (Dublin), Homefarm Road","53.3736615235483","-6.25192557043456"
"8220DB000086","Whitehall (Dublin City), Garda Station","53.3760502204589","-6.25116639066169"
"8220DB000087","Whitehall (Dublin City), Sherkin Gardens","53.3767517255719","-6.2548802899246"
"8220DB000088","Whitehall (Dublin City), Walnut Rise","53.3772872552991","-6.25769922864561"
"8220DB000090","Ballymun Road (St.Pappin's Road)","53.3863855316738","-6.26526567275522"
"8220DB000091","Ballymun Road (Glasnevin Avenue)","53.3884278896483","-6.26540814207683"
"8220DB000092","Wadelai, Ballymun Library","53.3898373340512","-6.26467424036105"
"8220DB000093","Wadelai, Ballymun Road (Opp Shanlis Road)","53.3923014677497","-6.26415297561013"
"8220DB000094","Ballymun, Civic Centre","53.3960347624115","-6.26437695995448"
"8220DB000102","Ballymun, Balbutcher Lane (Árd Na Meala)","53.3977730701661","-6.26771985697013"
"8220DB000104","Poppintree, Balbutcher Lane (Carrig Road)","53.3997562075174","-6.27681294502528"
"8220DB000105","Ballymun, Balbutcher Lane (Cranogue Road)","53.4029363966818","-6.28169269646949"
"8220DB000107","Ballymun, Balbutcher Lane (Cranogue Road)","53.4020356254331","-6.27968361815462"
"8220DB000110","Ballymun, Balbutcher Lane (Árd Na Meala)","53.3979386409613","-6.26860038147331"
"8220DB000112","Ballymun, Civic Centre","53.3961544015462","-6.2639510403018"
"8220DB000113","Ballymun, Comprehensive School","53.3922679629262","-6.26370325464247"
"8220DB000114","Wadelai, Ballymun Road (Shanliss Road)","53.3913333220544","-6.26371122925237"
"8220DB000115","Whitehall (Dublin City), Ballymun Road (Albert College Drive)","53.3878836841267","-6.26506943988923"
"8220DB000116","Whitehall (Dublin City), Griffith Lawns","53.3776934606437","-6.25966673989336"
"8220DB000117","Whitehall (Dublin City), Walnut Rise","53.3773659067251","-6.25754570845526"
"8220DB000118","Whitehall (Dublin City), Sherkin Gardens","53.3766430016908","-6.25359209857681"
"8220DB000119","Drumcondra, Upper Drumcondra Road (Griffith Avenue)","53.3751904807235","-6.25076574528234"
"8220DB000126","Ballymun, Nursing Home","53.3990954666854","-6.26408696056045"
"8220DB000127","Ballymun, Silver Swan Nursing Home","53.3991075304805","-6.26368042823971"
"8220DB000129","Wadelai, Glasnevin Ave (Glasnevin Dr)","53.3898903154474","-6.27142293606878"
"8220DB000130","Glasnevin North, Glasnevin Park","53.3900920127596","-6.27418126942506"
"8220DB000131","Glasnevin North, Glasnevin Avenue (Beneavin Drive)","53.3903858902625","-6.27834923697209"
"8220DB000133","Glasnevin North, Grove Park Road","53.3907969275881","-6.28630150947292"
"8220DB000134","Glasnevin North, Sycamore Road (Willow Park Crescent)","53.3930945913203","-6.28607386543561"
"8220DB000136","Finglas, McKee Road","53.3943802013895","-6.28985659650009"
"8220DB000137","Finglas, Clancy Avenue","53.3923167196304","-6.29263079481432"
"8220DB000138","Finglas, Saint Canice's School","53.3899950092672","-6.29180657264741"
"8220DB000141","Glasnevin North, Glasnevin Avenue (Beneavin Drive)","53.3904450850916","-6.27809124468715"
"8220DB000142","Glasnevin North, Glasnevin Park","53.3901982852621","-6.27407172195534"
"8220DB000143","Wadelai, Glasnevin Ave (Glasnevin Dr)","53.389876708405","-6.2692433699802"
"8220DB000146","Glasnevin, Na Fianna Football Ground","53.3753713979053","-6.26500696854736"
"8220DB000147","Glasnevin, Dean Swift Bridge","53.3724802262386","-6.26583086212365"
"8220DB000148","Glasnevin, Mobhi Road (Botanic Road)","53.3706701663468","-6.26806850705825"
"8220DB000149","Glasnevin, Mobhi Road (Mobhí Drive)","53.3731385872557","-6.26598446613778"
"8220DB000150","Glasnevin, Na Fianna Football Ground","53.3756588461862","-6.26499528302823"
"8220DB000151","Glasnevin, Botanic Gardens","53.3719552600192","-6.26929382771155"
"8220DB000153","Glasnevin, Meteorological Office","53.3757327663464","-6.27008755453706"
"8220DB000154","Glasnevin, Saint Brigid's School","53.3772589962512","-6.27555703718651"
"8220DB000155","Glasnevin, Old Finglas Road","53.3778742492869","-6.27957552717572"
"8220DB000156","Glasnevin, Tolka Road Estate #1","53.378623390086","-6.28166473909492"
"8220DB000157","Addison Park, Glasilawn Road","53.3804116224166","-6.28163782517765"
"8220DB000158","Glasnevin, Griffith Road","53.381348935624","-6.28368956273439"
"8220DB000159","Glasnevin, Griffith Parade","53.3827837191573","-6.28283511246108"
"8220DB000164","Glasnevin North, Beneavin Road","53.3884303639456","-6.28048792293046"
"8220DB000165","Beneavin Road, Junction Beneavin Park","53.3890348746719","-6.28377124881097"
"8220DB000166","Glasnevin North, Beneavin School","53.3895835973683","-6.28630514857365"
"8220DB000167","Glasnevin North, Beneavin Road (Ballygall Road East)","53.3901866021356","-6.28698758531706"
"8220DB000168","Beneavin Road, Junction Beneavin Park","53.3892599668872","-6.28442373469443"
"8220DB000169","Glasnevin North, Beneavin Road","53.3884339346694","-6.28011190995853"
"8220DB000173","Glasnevin, Glasnamana Place","53.3821216122982","-6.28054674839469"
"8220DB000174","Glasnevin, Tolka Road Estate","53.3806803549474","-6.28095056210771"
"8220DB000175","Glasnevin, Tolka Road Estate #1","53.378424253731","-6.28156753895514"
"8220DB000176","Glasnevin, Old Finglas Road","53.3780320419735","-6.27929860607809"
"8220DB000177","Glasnevin, Ballygall Road East","53.3804683765673","-6.27622403515383"
"8220DB000178","Glasnevin, West Park Drive","53.3818902631693","-6.27634698261825"
"8220DB000179","Glasnevin, Ballygall Road East","53.3803034312762","-6.27600521980133"
"8220DB000181","Glasnevin, Old Finglas Road (Cremore Ave)","53.3771498433764","-6.27422370686192"
"8220DB000182","Glasnevin, Meteorological Office","53.3756401078363","-6.26989591672556"
"8220DB000183","Glasnevin, Botanic Gardens","53.3723159291215","-6.26875318486038"
"8220DB000184","Glasnevin, Botanic Road,Cliftonville","53.3697036819826","-6.26897935449929"
"8220DB000185","Glasnevin, Botanic Road","53.3681009359861","-6.27002113927784"
"8220DB000186","Glasnevin, Prospect Road","53.365355342635","-6.27158997755118"
"8220DB000187","Phibsborough, Phibsboro Road","53.3627342523604","-6.27244736533832"
"8220DB000188","Phibsborough, Phibsboro Road (NCR)","53.3601206877553","-6.27258314915011"
"8220DB000189","Phibsborough, Broadstone","53.3571674394883","-6.27346881555339"
"8220DB000190","Phibsborough, Broadstone Depot","53.3551257304145","-6.27337107400574"
"8220DB000191","Phibsborough, Youth Club","53.3550768545254","-6.26937692305375"
"8220DB000192","Phibsborough, Mountjoy Street","53.3563972112359","-6.26807646963915"
"8220DB000193","Finglas, McKee Road","53.3911963059788","-6.29410403487394"
"8220DB000194","Phibsborough, Saint Dominic's Youth Club","53.3550406495518","-6.26997931103775"
"8220DB000195","Phibsborough, Constitution Hill","53.3550117778767","-6.27357097973096"
"8220DB000196","Phibsborough, Broadstone Depot","53.3568838992907","-6.27375070406954"
"8220DB000197","Phibsboro Road (Monck Place)","53.358952631612","-6.27323137351173"
"8220DB000198","Phibsborough, Phibsboro Shopping Centre","53.3616253828786","-6.27283781041661"
"8220DB000199","Phibsborough, Phibsboro Road","53.3636218114982","-6.27229124622519"
"8220DB000200","Glasnevin, Prospect Way","53.3674226926312","-6.27159644393802"
"8220DB000201","Glasnevin, Botanic Road","53.36829109866","-6.27011862691081"
"8220DB000202","Glasnevin, Fairfield Road","53.3700800875498","-6.26890397753376"
"8220DB000203","Drumcondra, Whitehall Garda Station","53.3763927937136","-6.25001002810673"
"8220DB000204","Whitehall, Highfield Hospital","53.379588357567","-6.24666219273761"
"8220DB000205","Whitehall (Dublin City), Swords Road","53.3813753269372","-6.24532604699473"
"8220DB000206","Whitehall, Collins Avenue West ( Larkhill Road)","53.3835460890329","-6.24747670792428"
"8220DB000207","Whitehall, Larkhill Road","53.3848216307363","-6.24987478276802"
"8220DB000208","Whitehall, Glendun Road","53.3866539303158","-6.24795040815756"
"8220DB000209","Whitehall, Glentow Estate","53.387271110529","-6.24591044728043"
"8220DB000210","Whitehall, Crestfield Road","53.3875940812728","-6.24831772849056"
"8220DB000211","Whitehall (Dublin City), Saint Aidan's School","53.3842808561631","-6.24916033059418"
"8220DB000212","Whitehall, Collins Avenue West ( Larkhill Road)","53.3831956351277","-6.24625839753322"
"8220DB000213","Whitehall, Iveragh Road","53.381531050665","-6.24491376813942"
"8220DB000214","Whitehall, Highfield Hospital","53.379408483573","-6.24665455182556"
"8220DB000215","Whitehall, Collins Avenue West","53.3818722870048","-6.2424494292295"
"8220DB000216","Beaumont (Dublin City), Yellow Road","53.3823308174836","-6.23819131969338"
"8220DB000217","Whitehall, Beaumont Road","53.384323621843","-6.23680112220447"
"8220DB000218","Beaumont, Shantalla Road (Beaumont Road)","53.3859238989699","-6.2337883241109"
"8220DB000220","Whitehall, Swords Road","53.3879405396554","-6.24498084117383"
"8220DB000233","Beaumont, Shantalla Road (Beaumont Road)","53.3858213105789","-6.23353699415902"
"8220DB000234","Beaumont, Beaumont Grove","53.3849504827242","-6.23482084271804"
"8220DB000235","Whitehall, Beaumont Road Collinswood Estate","53.3832966131819","-6.23724945651059"
"8220DB000236","Beaumont (Dublin City), Yellow Road","53.3820247430957","-6.23815886003786"
"8220DB000237","Whitehall, Collins Avenue","53.3820319328819","-6.24352519975875"
"8220DB000242","Beaumont, Coolgreena Road","53.3856548985671","-6.23201042765"
"8220DB000243","Beaumont, Beaumont Road","53.3857800608389","-6.22953967454699"
"8220DB000244","Beaumont, Elmount Rise","53.3849982136853","-6.22349851566417"
"8220DB000245","Beaumont, Whitethorn Crescent","53.38447224442","-6.21956660604612"
"8220DB000246","Artane, Beaumont Recreational Centre","53.3851504766469","-6.21623087716996"
"8220DB000247","Artane, Maryfield Drive","53.3869761610588","-6.21450075590277"
"8220DB000248","Artane, Maryfield Drive","53.3855645601725","-6.21446963135785"
"8220DB000249","Artane, Beaumont Recreational Centre","53.3849335491788","-6.21614974496396"
"8220DB000250","Beaumont, Whitethorn Crescent","53.3844194499785","-6.22024531610136"
"8220DB000251","Beaumont, Skelly's Lane (Elmount Rise)","53.3848322787449","-6.22321978633312"
"8220DB000252","Beaumont, Skelly's Lane (Opp Beaumont Crescent)","53.3855680158371","-6.22796991791541"
"8220DB000253","Kilmore, Beaumont Hospital","53.3899459507358","-6.22439004685405"
"8220DB000254","Kilmore, Beaumont Hospital","53.3902652984433","-6.22410611366838"
"8220DB000255","Beaumont, Coolgreena Road","53.385593880419","-6.23153187241743"
"8220DB000261","Dublin, Parnell Square North","53.3540562845333","-6.26285336122227"
"8220DB000262","Dublin, Garden of Remembrance","53.3539469610394","-6.26275264892108"
"8220DB000263","Dublin, Garden of Remembrance","53.3537456234947","-6.2625054539801"
"8220DB000264","Dublin, Gaelscoil Cholaiste Mhuire","53.3535353026712","-6.26225862681692"
"8220DB000265","Dublin, Gate Theatre","53.3533615685145","-6.26205538070461"
"8220DB000270","Dublin, Upper O'Connell Street","53.3506233915308","-6.26042429163433"
"8220DB000271","Dublin, Lower O'Connell Street","53.3485963625818","-6.25948541997212"
"8220DB000272","Dublin, Upper O'Connell Street","53.3514644798917","-6.26078060573293"
"8220DB000273","Dublin City South, O'Connell Bridge","53.3472474159524","-6.25881940153958"
"8220DB000274","Dublin, Millennium Spire","53.3503490838222","-6.26072086862175"
"8220DB000276","Ashtown, River Road","53.3774022009249","-6.33179658312856"
"8220DB000277","Dublin, Citizens Information Service","53.350822325818","-6.26050631978692"
"8220DB000278","Dublin, Cathal Brugha Street","53.3513531741087","-6.26116068128307"
"8220DB000279","Dublin, Millennium Spire","53.3501317464093","-6.26060954701665"
"8220DB000281","Rotunda, Dublin Bus Head Office","53.3509099548424","-6.26096842075147"
"8220DB000284","Ashtown, Rathbourne Avenue","53.3772826239301","-6.32838928381528"
"8220DB000286","Dublin, Cathal Brugha Street","53.3520003824172","-6.26054847806694"
"8220DB000288","Dublin City, Marlborough Street","53.3491972798725","-6.2550898269972"
"8220DB000289","Dublin, Irish Life Mall","53.3490351823471","-6.25629812341943"
"8220DB000291","Dublin, National Lottery Head Quarters","53.3489359441274","-6.2568879893772"
"8220DB000292","Dublin, Irish Life Mall","53.3489273892572","-6.2563025232073"
"8220DB000293","Dublin, National Lottery Head Quarters","53.3488581695532","-6.25710145511176"
"8220DB000297","Dublin, Eden Quay","53.3480937576121","-6.25707255845932"
"8220DB000298","Dublin, Liberty Hall","53.3481754700677","-6.25651346115562"
"8220DB000299","Dublin, Liberty Hall","53.3482560826895","-6.25587930321627"
"8220DB000300","Dublin, Liberty Hall","53.3482974851241","-6.2556372819872"
"8220DB000301","Dublin, Marlborough Street","53.3479491562263","-6.25701837558452"
"8220DB000302","Dublin, Eden Quay","53.3480659219859","-6.2563977670774"
"8220DB000303","Dublin, Eden Quay","53.3481136752043","-6.25597524079717"
"8220DB000307","Warrenmount, O'Donovan Road","53.3345770894659","-6.28008746416521"
"8220DB000308","Warrenmount, Oscar Square","53.3367711889546","-6.27953365692407"
"8220DB000309","Warrenmount, Ardee Street","53.3378498917964","-6.27891958815994"
"8220DB000312","Temple Bar, Wellington Quay","53.3454764728264","-6.2662061554843"
"8220DB000313","Dublin, Lower Liffey Street","53.3469069007445","-6.26197249771072"
"8220DB000315","Dublin, Bachelors Walk","53.3469263969899","-6.26207684589386"
"8220DB000317","Dublin City South, Westmoreland Street","53.3462448501457","-6.25910057954255"
"8220DB000318","Westmoreland Street (O'Connell Bridge)","53.3463077295703","-6.25909801737036"
"8220DB000319","Dublin City South, Westmoreland Street","53.3459690123467","-6.25929205738211"
"8220DB000320","Dublin City South, Westmoreland Street","53.3455466028366","-6.25929424743901"
"8220DB000322","Ballymun, Gulliver's Retail Park","53.4042549924644","-6.26535084532186"
"8220DB000325","Temple Bar, Aston Quay","53.3467332002978","-6.25992180730209"
"8220DB000326","Temple Bar, Aston Quay","53.3465796093979","-6.26048380541737"
"8220DB000328","Temple Bar, Aston Quay","53.3464264533881","-6.26107582175627"
"8220DB000329","Temple Bar, Aston Quay","53.3463188644613","-6.26171103970584"
"8220DB000333","Dublin City South, O'Connell Bridge House","53.3466481992369","-6.25840823959161"
"8220DB000334","Dublin City South, D'Olier Street","53.346581156205","-6.25812559112216"
"8220DB000335","Dublin City South, D'Olier House","53.3462619374052","-6.25780816657112"
"8220DB000336","Dublin City South, Ashfield House","53.3462516394294","-6.25771846673947"
"8220DB000340","Dublin City South, Pearse Street Garda Station","53.3460128066369","-6.25613609916844"
"8220DB000342","Trinity College","53.3455641183174","-6.25680026075817"
"8220DB000345","Trinity College, Garda Station","53.345475815469","-6.2562931940713"
"8220DB000346","Trinity College, Garda Station","53.3455062736618","-6.256532266224"
"8220DB000350","Dublin City South, Lower Sandwith Street","53.3456319415817","-6.24976824959424"
"8220DB000351","Pearse Station, Pearse Street","53.3433724681717","-6.24524997856558"
"8220DB000352","Grand Canal Dock, Pearse Square","53.3429891458031","-6.2424121399899"
"8220DB000353","Grand Canal Dock, Pearse Street","53.3426158463808","-6.23964903171023"
"8220DB000354","Grand Canal Dock, Barrow Street","53.3422200812999","-6.23658652563569"
"8220DB000355","Grand Canal Dock, Ringsend Bus Depot","53.3417614511066","-6.23292593610588"
"8220DB000356","Ringsend, Bridge Street","53.3419030234416","-6.22671744313464"
"8220DB000357","Irishtown, Irishtown Road","53.3391710439669","-6.22312147489857"
"8220DB000371","Irishtown (Dublin City), Irishtown Gospel Hall","53.3386127807367","-6.22305458253422"
"8220DB000372","Sandymount, Star Of The Sea Church","53.3354234769795","-6.21953823532786"
"8220DB000373","Sandymount, Farney Park","53.3342753312713","-6.21788927259654"
"8220DB000374","Sandymount, Sandymount Road","53.3331662348684","-6.21644898414059"
"8220DB000375","Sandymount, Seafort Avenue","53.3340611346518","-6.2143845130625"
"8220DB000376","Sandymount, Strand Road (Lea Road)","53.330712526225","-6.2092542646162"
"8220DB000377","Sandymount, Strand Road (Gilford Road)","53.3287289292306","-6.20884189534073"
"8220DB000378","Sandymount, Sandymount Tower","53.3256502919022","-6.20733447201422"
"8220DB000380","Sandymount, Saint John's Road East","53.3247260855137","-6.20923477230439"
"8220DB000381","Sandymount, Saint John's Church","53.3242058682817","-6.21230406086853"
"8220DB000382","Sandymount, Seamount House","53.3250976571988","-6.20764288276518"
"8220DB000383","Sandymount, Strand Road (Gilford Road)","53.3285414219886","-6.20892482063583"
"8220DB000384","Sandymount, Strand Road (Lea Road)","53.331633952392","-6.21016160485997"
"8220DB000385","Sandymount, Newgrove Avenue","53.332351023118","-6.21122768794003"
"8220DB000387","Sandymount, Sandymount Road","53.3324995101993","-6.21574105767749"
"8220DB000388","Irishtown, Sandymount Road","53.3345088619651","-6.21848017255212"
"8220DB000389","Irishtown (Dublin City), Sandymount Road","53.3352900817962","-6.21963388936862"
"8220DB000390","Sandymount, Tritonville Road","53.3377022219536","-6.22226650556187"
"8220DB000391","Ringsend, Irishtown Road","53.3399922179904","-6.22394334704278"
"8220DB000392","Ringsend, Saint Patrick's Church","53.3417336311665","-6.22741532105921"
"8220DB000393","Sandymount, Cranfield Place","53.3369038877169","-6.22237479685263"
"8220DB000395","Ringsend, Ringsend Road","53.3419400535651","-6.23527645441634"
"8220DB000396","Grand Canal Dock, Pearse Street","53.3424615903738","-6.23955025594793"
"8220DB000397","Grand Canal Dock, Saint Andrew's Resource Centre","53.3427855554404","-6.24201500730761"
"8220DB000398","Pearse Station, Pearse Street","53.3432949350359","-6.24547844686789"
"8220DB000399","Pearse Station, Pearse Street","53.3438646181754","-6.24815850036414"
"8220DB000400","Trinity College, Shaw Street","53.3447511615992","-6.25283825801258"
"8220DB000404","Trinity College, Nassau St. (Opp. Frederick St)","53.3427183259381","-6.25642074190687"
"8220DB000405","Trinity College, South Frederick's Street","53.3424816891816","-6.2556043726643"
"8220DB000406","Trinity College, Northern Ireland Tourist Board","53.3426164442785","-6.25621463756987"
"8220DB000407","Custom House Quay","53.3483795866679","-6.25387650599511"
"8220DB000408","Merrion Square North","53.3409707826238","-6.25001923957642"
"8220DB000409","Merrion Square, Holles Street","53.3401367313169","-6.24769559556976"
"8220DB000410","Pembroke West, Lower Mount Street","53.3388134508634","-6.24389039032328"
"8220DB000411","Dublin City South, Lower Mount Street","53.3381171192211","-6.2417715535014"
"8220DB000412","Dublin City South, Northumberland Road","53.3352555102366","-6.2372793190562"
"8220DB000413","Dublin City South, Northumberland Road","53.334094193305","-6.23654639405153"
"8220DB000414","Ballsbridge, Northumberland Road","53.3315738058948","-6.23447321695275"
"8220DB000415","Ballsbridge, Elgin Road","53.3303378154068","-6.23294774966437"
"8220DB000416","Ballsbridge, Merrion Road RDS","53.3286399201175","-6.22936956914703"
"8220DB000417","Ballsbridge, Merrion Road (Sydenham Road)","53.3276995856506","-6.22597042048855"
"8220DB000418","Ballsbridge, British Embassy","53.3257198105114","-6.22339529752618"
"8220DB000419","Ballsbridge, Merrion Road","53.3239951058417","-6.22044950312351"
"8220DB000420","Ballsbridge, Merrion Road","53.3219108012885","-6.21750392172749"
"8220DB000421","Merrion, Merrion Road (Ailesbury Road)","53.3200051794214","-6.21449112042242"
"8220DB000422","Merrion, Saint Vincent's Hospital","53.318064191863","-6.21032428070782"
"8220DB000423","Merrion, Herbert Avenue","53.3171485041342","-6.20740565828118"
"8220DB000424","Merrion, Merrion Gates","53.3153943801988","-6.20372686621344"
"8220DB000476","Merrion, Merrion Gates","53.3157515263706","-6.20476252273264"
"8220DB000477","Merrion, Merrion Road (Estate Ave)","53.3168630546822","-6.20695232009333"
"8220DB000478","Merrion, Saint Vincent's Hospital","53.3181142989155","-6.21126782530888"
"8220DB000479","Merrion, Merrion Shopping Centre","53.319143967621","-6.21340128669971"
"8220DB000480","Merrion, Merrion Road (Ailesbury Road)","53.3208499799872","-6.2162872053677"
"8220DB000481","Ballsbridge, Merlyn Road","53.3223446397546","-6.21826644297958"
"8220DB000482","Ballsbridge, Merrion Road","53.3247277780849","-6.22196529496771"
"8220DB000483","Ballsbridge, Merrion Road","53.3259975565216","-6.22393923445059"
"8220DB000485","Ballsbridge, Merrion Road RDS","53.3283521017921","-6.22875091277159"
"8220DB000487","Ballsbridge, American Embassy","53.3308552893807","-6.23390230837209"
"8220DB000488","Dublin City South, Lansdowne Park","53.3330985546294","-6.23607694701108"
"8220DB000489","Dublin City South, Northumberland Road","53.3349420031452","-6.2373523126562"
"8220DB000490","Beggar'S Bush, Northumberland Road","53.3366266303163","-6.2388295477198"
"8220DB000491","Dublin City South, Lower Mount Street","53.3378140535091","-6.24133351088674"
"8220DB000492","Pembroke West, Lower Mount Street","53.338584685142","-6.24361446215909"
"8220DB000493","Merrion Square, Holles Street","53.3398534163774","-6.24737682273898"
"8220DB000494","Clare Street","53.3413358933187","-6.25162625805016"
"8220DB000495","Pearse Station, Outside Train Station","53.3435913198129","-6.24974670516903"
"8220DB000496","Busáras","53.3495336866973","-6.25228215714751"
"8220DB000497","Outside Connolly Station","53.3505260753991","-6.25069434322382"
"8220DB000499","Ballybough, Summerhill Parade","53.3575046755216","-6.24911644699919"
"8220DB000500","North Strand, Ballybough Road (Foster Terrace)","53.3590360763177","-6.24628915528184"
"8220DB000501","North Strand, Ballybough Road (Clonliffe Road)","53.3607056846882","-6.24369637425144"
"8220DB000509","North Strand, Ballybough Road (Clonliffe Road)","53.3606013493589","-6.24332503950194"
"8220DB000510","North Strand, Ballybough Road (Foster Terrace)","53.359172736644","-6.24580275804931"
"8220DB000511","Ballybough, Summerhill Parade","53.3575155897132","-6.24863523337024"
"8220DB000512","Summerhill, Mountview Court","53.3559473573122","-6.25201971110246"
"8220DB000513","Summerhill, Summerhill Road","53.3552575357682","-6.25401597445852"
"8220DB000515","Connolly Station, Amiens Street","53.3536082775389","-6.24819454800342"
"8220DB000516","North Strand, Marino College of Further Education","53.3557288328958","-6.2457038395301"
"8220DB000518","North Strand, Northbrook Avenue Lower","53.3589392077014","-6.24092940256284"
"8220DB000519","North Strand, Annesley Bridge","53.3603387601165","-6.23953452865897"
"8220DB000521","Ballybough, Fairview Park","53.3616370470482","-6.23797846068553"
"8220DB000522","Fairview, Fairview Footbridge","53.3632889490287","-6.23541597469797"
"8220DB000523","Fairview, Marino College Fairview","53.3642686011137","-6.23176916143433"
"8220DB000525","Clontarf, Howth Road","53.3649608735109","-6.22633091116317"
"8220DB000526","Clontarf, Copeland Grove","53.3668695721479","-6.22111227858032"
"8220DB000527","Clontarf, Howth Road (St.Lawrence Road)","53.3680198762275","-6.21267888054445"
"8220DB000528","Clontarf, Castle Grove","53.3692640806971","-6.20993674463178"
"8220DB000529","Killester, Howth Road (Collins Avenue)","53.3705942520024","-6.20753649495154"
"8220DB000530","Killester, Howth Road (Castle Ave)","53.3712245323445","-6.20402332968282"
"8220DB000531","Killester, Howth Road (Furry Park Road)","53.3732170200372","-6.20144457927604"
"8220DB000532","Raheny, Howth Road (Brookwood Avenue)","53.375718621976","-6.19389907203514"
"8220DB000533","Raheny, Howth Road (Ennafort Park Estate)","53.3775832778026","-6.18705613952442"
"8220DB000534","Raheny, Garda Retirement Home","53.3786553262457","-6.18189987078651"
"8220DB000535","Raheny, Raheny Shopping Centre","53.3802317319566","-6.1774132643626"
"8220DB000536","Raheny, Raheny Village","53.3804237567076","-6.17351172677606"
"8220DB000537","Raheny, Avondale Park","53.3799012003047","-6.16815263497726"
"8220DB000538","Raheny, Howth Road (Maywood Road)","53.3801380645862","-6.16426418318855"
"8220DB000539","Raheny, Howth Road (The Old Sheiling)","53.3806736618095","-6.15935564153758"
"8220DB000540","Raheny, Howth Road (Greendale Road)","53.3813362763679","-6.1551179435333"
"8220DB000541","Howth Road (Blackbanks)","53.3818727077497","-6.15202806844666"
"8220DB000542","Bayside, Dublin Road (Kilbarrack Road)","53.3836619200447","-6.14626794992908"
"8220DB000591","Bayside, Dublin Road (Kilbarrack Road)","53.3843156154467","-6.14437537676043"
"8220DB000592","Dublin Road (James Larkin Road)","53.3827173760362","-6.14853388152121"
"8220DB000593","Howth Road (Blackbanks)","53.3819577847972","-6.15113744949444"
"8220DB000594","Raheny, Howth Road (Greendale Road)","53.3811633655567","-6.15556136213264"
"8220DB000595","Raheny, Berehaven Place","53.3805999504412","-6.15923856299832"
"8220DB000596","Kilbarrack, Howth Road","53.3802528433238","-6.16179397207691"
"8220DB000597","Raheny, Howth Road (Maywood Road)","53.3800190129087","-6.16470523493514"
"8220DB000598","Raheny, Howth Road (Avondale Park)","53.3798353428913","-6.16913254174957"
"8220DB000599","Raheny, Raheny Library","53.3803353283041","-6.17301945078285"
"8220DB000600","Raheny, Howth Road","53.3802405498618","-6.17622535059706"
"8220DB000601","Raheny, Howth Road (Cill Eanna Estate)","53.3792502012084","-6.17964982511411"
"8220DB000602","Raheny, Cill Eanna Estate (Opposite Ennafort Park)","53.3781425247901","-6.1830490710099"
"8220DB000603","Raheny, Ennafort Park Estate","53.3773821590087","-6.18742542966496"
"8220DB000604","Raheny, All Saints Road","53.3763546440094","-6.19079085973447"
"8220DB000605","Raheny, Howth Road (Brookwood Avenue)","53.3756505162434","-6.19355625373816"
"8220DB000606","Killester, Saint Bridget's Church","53.3747089784008","-6.19786466034239"
"8220DB000607","Killester, Howth Road (Furry Park Road)","53.3724998515806","-6.20216614864388"
"8220DB000608","Killester, Howth Road (Castle Ave)","53.3710783844633","-6.20446531476562"
"8220DB000609","Clontarf, Castle Grove","53.3698375440777","-6.20862025648969"
"8220DB000610","Clontarf, Ashbrook Estate","53.3683623013066","-6.21153745527438"
"8220DB000611","Clontarf, Howth Road (Hollybrook Park)","53.3667557998784","-6.21890801167765"
"8220DB000612","Marino, Marino Road","53.3658698711413","-6.22399402584046"
"8220DB000613","Clontarf, Howth Road","53.3646174709891","-6.22681099838462"
"8220DB000614","Fairview, Pedestrian Footbridge","53.3636927873664","-6.23355106826557"
"8220DB000615","Ballybough, Fairview Park","53.3619064164541","-6.23735129893035"
"8220DB000616","North Strand, Annesley Bridge","53.3599170181452","-6.23958196512716"
"8220DB000617","Ballybough, North Strand Road","53.357894521071","-6.24200909637447"
"8220DB000618","North Strand, Newcomen Bridge","53.3561117066802","-6.24484679909683"
"8220DB000619","Connolly Station, Amiens Street","53.3540446250405","-6.24730533351984"
"8220DB000620","Dublin, Talbot Street (opp Bank of Ireland)","53.3511934775774","-6.25146316296385"
"8220DB000621","Dublin, Talbot Street","53.3505177759152","-6.25626764847564"
"8220DB000624","Harmonstown, Harmonstown Road (Ribh Road)","53.38018530713","-6.18912523804651"
"8220DB000625","Harmonstown, Lein Park","53.3817875653826","-6.18632129728301"
"8220DB000626","Harmonstown, Edenmore Green","53.3844945184151","-6.18405641915907"
"8220DB000627","Edenmore, Edenmore Grove","53.385407017017","-6.18200303261637"
"8220DB000628","Edenmore, Edenmore Grove","53.3869549963204","-6.18390657920362"
"8220DB000629","Edenmore, Edenmore Park","53.3865279695229","-6.18596942471494"
"8220DB000630","Edenmore, Springdale Road","53.3872439958511","-6.18932175227289"
"8220DB000633","Edenmore, Tonlegee Drive","53.3896443404821","-6.18935518044481"
"8220DB000634","Edenmore, Tonlegee Avenue","53.3902751966525","-6.18414110921006"
"8220DB000635","Edenmore, Glenwood Road (Tonlegee Rd)","53.3890225360658","-6.18392380127648"
"8220DB000636","Edenmore, Tonlegee Drive","53.3888586595165","-6.18674234809099"
"8220DB000637","Edenmore, Springdale Road","53.3877918262024","-6.18988485424521"
"8220DB000638","Edenmore, Springdale Road","53.3867623213242","-6.18837999607754"
"8220DB000639","Edenmore, Edenmore Park","53.3863330185323","-6.18674446075596"
"8220DB000640","Edenmore, Edenmore Grove","53.3867053851996","-6.18345113980026"
"8220DB000641","Edenmore, Edenmore Grove","53.3858263828452","-6.18239108146195"
"8220DB000642","Harmonstown, Edenmore Green","53.384731848305","-6.18311422897616"
"8220DB000643","Edenmore, Saint Joseph's Hospital","53.3835661358812","-6.1838854683411"
"8220DB000644","Harmonstown, Lein Park","53.3823625142317","-6.18571057664617"
"8220DB000645","Harmonstown, Harmonstown Road (Ribh Road)","53.3801688019244","-6.18862988048628"
"8220DB000649","Raheny, All Saints Road","53.3762836659106","-6.18966656708744"
"8220DB000650","All Saints Road (Sybill Hill Ave)","53.3754028537338","-6.18552548323385"
"8220DB000651","Raheny, All Saints Road (Near Tennis Courts Car Park)","53.3754794507715","-6.1799309090613"
"8220DB000653","Raheny, Main Street Raheny","53.3794630466244","-6.17534163896221"
"8220DB000654","Raheny, Watermill Road","53.379210075798","-6.17702098083078"
"8220DB000655","Raheny, Watermill Drive","53.3777386713847","-6.17543040232881"
"8220DB000656","Raheny, All Saints Park","53.3764702007962","-6.17770919175966"
"8220DB000657","Raheny, All Saints Park","53.3755453978778","-6.17895111704479"
"8220DB000658","Raheny, All Saints Road (Waterfall Road)","53.3749800484815","-6.18313861991686"
"8220DB000659","All Saints Road (Sybill Hill Ave)","53.3752374406804","-6.1858782134899"
"8220DB000664","Donnycarney, Donnycarney Church","53.3747192481248","-6.21950756213934"
"8220DB000665","Donnycarney, Malahide Road Clontarf Golf Club","53.3724663177933","-6.22212646122623"
"8220DB000666","Clontarf, Mount Temple School","53.3702331241213","-6.22426334784654"
"8220DB000667","Marino, Malahide Road (Griffith Avenue)","53.3679816454659","-6.22698684651141"
"8220DB000668","Marino, East South B. Sub Station","53.3645749808589","-6.22939731689476"
"8220DB000669","Marino, Malahide Road (Crescent Place)","53.3663170047508","-6.22867890531785"
"8220DB000670","Marino, Malahide Road (Griffith Avenue)","53.3689561148085","-6.22602966389211"
"8220DB000671","Clontarf, Mount Temple School","53.3707168419685","-6.22415305315518"
"8220DB000672","Donnycarney, junction Donnycarney Road","53.3734663500286","-6.22107782075337"
"8220DB000675","Amiens Street Junction Upper Sheriff Str","53.3528581377162","-6.24852575947707"
"8220DB000709","Killester, Saint Bridget's Church","53.3750380598504","-6.19703913201504"
"8220DB000722","Raheny, Outside Train Station","53.3811136996508","-6.17572202474466"
"8220DB000723","Edenmore, East South B. Sub Station","53.3841517880035","-6.17572742205128"
"8220DB000724","Edenmore, Grange Woodbine Community Centre","53.3869554629401","-6.17451001140907"
"8220DB000725","Edenmore, Raheny Road","53.3895723720634","-6.17048881126756"
"8220DB000726","Donaghmede, Millbrook Avenue","53.3917483514218","-6.16761378066966"
"8220DB000727","Donaghmede, Donaghies Estate","53.3937048518631","-6.16683802482072"
"8220DB000728","Donaghmede, Church Of The Holy Trinity","53.3953162106826","-6.16349059472377"
"8220DB000729","Donaghmede, Scoil Bride","53.3965584587976","-6.16244459517592"
"8220DB000730","Donaghmede, Hole in the Wall Road","53.3981666977284","-6.16181886879421"
"8220DB000738","Donaghmede, Grangemore Road","53.3976003550304","-6.16181320548643"
"8220DB000739","Donaghmede, Donaghmede Shopping Centre","53.3951450858597","-6.16346788917263"
"8220DB000740","Donaghmede, Donaghies Estate","53.3931412776214","-6.16701261526443"
"8220DB000741","Donaghmede, Millbrook Avenue","53.3919077252208","-6.16745657119052"
"8220DB000742","Raheny, De La Salle School","53.3898234138452","-6.16986158795113"
"8220DB000743","Raheny, Woodbine Park","53.3880248638024","-6.17273523820562"
"8220DB000744","Raheny, Raheny Road","53.3852706961919","-6.17483767880914"
"8220DB000745","Raheny, Outside Train Station","53.381343565605","-6.17547167673029"
"8220DB000746","Kildare Street (Natural History Museum)","53.3402246009318","-6.25553131254224"
"8220DB000747","Dublin City South, Archbishop Statue","53.3399308030255","-6.25572351873597"
"8220DB000748","Stephen's Green, Huguenot Cemetery","53.3385095343946","-6.25503066600718"
"8220DB000749","Dublin City South, Lower Pembroke Street","53.3376207009507","-6.25080214718478"
"8220DB000750","Dublin City South, Lower Baggot Street","53.3365710800751","-6.24848750327114"
"8220DB000751","Dublin City South, Baggot Street Lower","53.3353205479248","-6.24657163552756"
"8220DB000752","Dublin City South, Upper Baggot Street","53.3336716542328","-6.24446202003114"
"8220DB000753","Dublin City South, Saint Martins House","53.3324533902693","-6.24352105457144"
"8220DB000754","Dublin City South, Waterloo Road (Burlington Road)","53.3307837823714","-6.24428032727381"
"8220DB000755","Dublin City South, Waterloo Road (Wellington Lane)","53.3288280456955","-6.2451413679877"
"8220DB000756","Donnybrook, Bloomfield Avenue","53.3263997617783","-6.2425987467031"
"8220DB000757","Donnybrook, Morehampton Road","53.3240813371564","-6.23958650985938"
"8220DB000758","Donnybrook, Donnybrook Fire Station","53.3226869429528","-6.23767738043155"
"8220DB000759","Donnybrook, Old Wesley Rugby Football Club","53.3203488508422","-6.23334551683733"
"8220DB000760","Donnybrook, Church of the Sacred Heart","53.3183301872864","-6.2305619559304"
"8220DB000761","Donnybrook, R.T.E. Television Studios","53.3161004007969","-6.22748721370701"
"8220DB000762","RTE","53.3145170648479","-6.22437094406494"
"8220DB000763","Donnybrook, Belfield Court","53.3123201447816","-6.22110031908025"
"8220DB000769","Donnybrook, Belfield Court","53.311901092315","-6.22132785711803"
"8220DB000770","N11 Opp. R.T.E.","53.3146361875598","-6.22573181130972"
"8220DB000771","Donnybrook, Teresian School","53.3158800692413","-6.22778152242804"
"8220DB000772","Donnybrook, Donnybrook Bus Garage","53.3184852574538","-6.23132106360093"
"8220DB000773","Donnybrook, Donnybrook Road","53.3199163484772","-6.23327331931081"
"8220DB000774","Donnybrook, Donnybrook Garda Station","53.3216121235617","-6.23549999641974"
"8220DB000775","Donnybrook, Morehampton Road","53.3234897098036","-6.23908544721613"
"8220DB000776","Donnybrook, Morehampton Road","53.3254792402812","-6.24173582106076"
"8220DB000777","Donnybrook, Morehampton Road","53.3269721601091","-6.24362614364871"
"8220DB000779","Dublin City South, Waterloo Road (Wellington Lane)","53.3286887363292","-6.24544736264854"
"8220DB000780","Dublin City South, Waterloo Road (Burlington Road)","53.3310633511681","-6.24434391821207"
"8220DB000781","Dublin City South, Saint Martins House","53.332626271424","-6.24366410261763"
"8220DB000782","Dublin City South, Upper Baggot Street","53.3335838144569","-6.24460076754333"
"8220DB000783","Dublin City South, Baggot Street Lower","53.3353085373743","-6.24697756396985"
"8220DB000784","Dublin City South, Lower Baggot Street","53.3364567280898","-6.24865737146514"
"8220DB000785","Dublin City South, Lower Pembroke Street","53.3371058976017","-6.25185937348663"
"8220DB000786","Dublin City South, Lower Leeson Street","53.3351467148271","-6.25617403577258"
"8220DB000790","St Stephens Green North","53.3393068590923","-6.25792652616638"
"8220DB000791","Stephen's Green, Stephens Court","53.3391151522909","-6.25772409664218"
"8220DB000792","Dublin City South, Dawson Street","53.3404489881504","-6.25858580845119"
"8220DB000793","Dublin City South, Dawson Street","53.3408597860288","-6.25840386924731"
"8220DB000795","Phibsborough, Eccles Street","53.3587400432977","-6.26972427815325"
"8220DB000796","Phibsborough, Mater Hospital, Berkeley Road","53.3600182144434","-6.26985278581192"
"8220DB000797","Phibsborough, Post Office","53.3607260028205","-6.27466216472105"
"8220DB000798","Cabra East, North Circular Road (Rathdown Road)","53.3594766361423","-6.27964070094017"
"8220DB000799","Cabra East, North Circular Road (Charleville Road)","53.3588687100101","-6.28173855104546"
"8220DB000800","Cabra East, Grangegorman Hospital","53.3580651515231","-6.2846104289481"
"8220DB000801","Cabra East, North Circular Road","53.3574704998113","-6.2876390824353"
"8220DB000802","Arbour Hill, Drumalee Estate","53.3564983224928","-6.29129872279033"
"8220DB000803","Cabra East, North Circular Road (Oxmanstown Road)","53.3547130307104","-6.29404421386"
"8220DB000804","Cabra East, North Circular Road (O'Devaney Gardens)","53.3536849851855","-6.29569268053352"
"8220DB000807","Arbour Hill, Phoenix Park Gate","53.3515565121154","-6.29770038608451"
"8220DB000808","Cabra East, North Circular Road (O'Devaney Gardens)","53.3539946695196","-6.29534982649487"
"8220DB000809","Cabra East, North Circular Road (Oxmanstown Road)","53.355260739805","-6.29337634624951"
"8220DB000810","Arbour Hill, Ellesmare Avenue","53.3570998601571","-6.28999764127673"
"8220DB000811","Cabra East, North Circular Road","53.3576721498972","-6.28728544721744"
"8220DB000812","Cabra East, Grangegorman Hospital","53.3582663606523","-6.284226743738"
"8220DB000813","Cabra East, North Circular Road (Charleville Road)","53.3591900460972","-6.28095937438322"
"8220DB000814","Phibsborough, North Circular Road (Cabra Road)","53.360540015137","-6.27609704929995"
"8220DB000817","Phibsborough, Mater Hospital, Berkeley Road","53.3596462179679","-6.2696124384477"
"8220DB000818","Phibsborough, O'Connell Avenue","53.3584811208081","-6.26922394483134"
"8220DB000819","Phibsborough, Blessington Court","53.3563040208489","-6.26599198569773"
"8220DB000820","Cabra East, Carnlough Road (Cabra Road)","53.361967795144","-6.29351397958427"
"8220DB000821","Cabra East, Drumcliffe Estate","53.3645519035043","-6.29383143635442"
"8220DB000822","Cabra East, Carnlough Road","53.3671206776262","-6.29182032110431"
"8220DB000823","Cabra East, Carnlough Road (Bannow Road)","53.3682351539493","-6.29118965054413"
"8220DB000824","Cabra, Carnlough Road (Kilkieran Road)","53.3697478518935","-6.29326309496119"
"8220DB000825","Cabra, Carnlough Road","53.3704294399324","-6.29693282591372"
"8220DB000826","Cabra, Near Train Station","53.371217854378","-6.30116950755918"
"8220DB000827","Cabra, Ventry Park Estate","53.3713061509822","-6.30358561039431"
"8220DB000828","Cabra, Near Train Station","53.3710448241108","-6.29974867792342"
"8220DB000829","Cabra, Carnlough Road","53.3703968945592","-6.29591219523143"
"8220DB000830","Cabra East, Carnlough Road (Bannow Road)","53.3696243716567","-6.29217098015254"
"8220DB000831","Cabra East, Carnlough Road","53.367661969108","-6.29133281290905"
"8220DB000832","Cabra East, Drumcliffe Estate","53.3636294546039","-6.29406363489174"
"8220DB000833","Cabra East, Carnlough Road (Cabra Road)","53.3617761473196","-6.29331128383968"
"8220DB000834","Drumcondra (Dublin), Binns Bridge","53.3619793509141","-6.26069793623509"
"8220DB000835","Drumcondra (Dublin), Lower Saint Brigid's Road","53.362560328603","-6.26294314966453"
"8220DB000836","Drumcondra (Dublin), Claude Road","53.3632915018053","-6.26624916236246"
"8220DB000837","Drumcondra (Dublin), David Road","53.3637015323663","-6.26787035534411"
"8220DB000838","Drumcondra (Dublin), Whitworth Road (Prospect Rd)","53.3643193961163","-6.27018939098142"
"8220DB000839","Drumcondra (Dublin), David Road","53.3637449204179","-6.26776341254001"
"8220DB000840","Drumcondra (Dublin), Whitworth Road","53.3632433495627","-6.26540966607288"
"8220DB000841","Drumcondra (Dublin), Whitworth Road","53.3621221995284","-6.26063201536313"
"8220DB000842","Stephen's Green, Saint Stephen's Green","53.3372519750062","-6.25631338920499"
"8220DB000843","Stephen's Green, Saint Stephen's Green","53.3370024314213","-6.2564587206996"
"8220DB000844","Stephen's Green, Loreto Convent","53.3376318720588","-6.25586239848749"
"8220DB000845","Dublin City South, Leeson Street","53.3354534454643","-6.25625161826541"
"8220DB000846","Dublin City South, Lower Leeson Street","53.3334537329999","-6.25411090847857"
"8220DB000847","Dublin City South, Upper Leeson Street (Mespil Road)","53.3316014451627","-6.25221961965177"
"8220DB000848","Dublin City South, Sussex Road","53.3297279908157","-6.24888799835488"
"8220DB000849","Ranelagh, Appian Way","53.3278982725888","-6.24792700914133"
"8220DB000850","Ranelagh, Chelmsford Road","53.3260857395309","-6.25119903116797"
"8220DB000851","The Triangle (Dublin), Chelmsford Road","53.3250997052106","-6.25322101602942"
"8220DB000852","Ranelagh, Ranelagh Village","53.3244292664921","-6.25285808537085"
"8220DB000853","Ranelagh, Sandford Road","53.3225927700056","-6.24836957707265"
"8220DB000854","Milltown (Dublin City), Sandford Road (Larch Grove)","53.3216316712779","-6.24657756321518"
"8220DB000855","Milltown (Dublin City), Sandford Road (Belmont Road)","53.3193022984556","-6.24281536591722"
"8220DB000856","Milltown (Dublin City), Clonskeagh Road (Eglington Road)","53.3176551118152","-6.24082667970819"
"8220DB000857","Milltown (Dublin City), Clonskeagh Hospital","53.3165673800964","-6.23837983033545"
"8220DB000858","Milltown (Dublin City), Beech Hill Estate","53.3140944728122","-6.2383015721788"
"8220DB000881","Milltown (Dublin City), Beech Hill Estate","53.3145635684102","-6.23841733156699"
"8220DB000882","Milltown (Dublin City), Clonskeagh Hospital","53.3167046565363","-6.23915467649306"
"8220DB000883","Clonskeagh, Clonskea Road (Milltown Road)","53.3176851573292","-6.24103558331433"
"8220DB000884","Clonskeagh, Milltown Park","53.3199969912141","-6.24421284442794"
"8220DB000885","Milltown (Dublin City), Sandford Road (Larch Grove)","53.3212589673318","-6.24629262123041"
"8220DB000886","Ranelagh, Sandford Road","53.3225973962227","-6.24868463259583"
"8220DB000887","Ranelagh, Ranelagh","53.3242077457399","-6.25246180680163"
"8220DB00089","Whitehall (Dublin City), Griffith Avenue (Lambay Road)","53.3780271154986","-6.26159214988759"
"8220DB000893","Rathmines, Cowper Road","53.3160725163363","-6.2591581800642"
"8220DB000894","Rathmines, Cowper Road","53.3151931375336","-6.26419198051229"
"8220DB000895","Rathgar, Upper Rathmines Road","53.3139322642579","-6.26401801846629"
"8220DB000896","Rathgar, Palmerston Park","53.3133721496302","-6.26135424684808"
"8220DB000897","Rathgar, Palmerston Lane","53.314299620262","-6.25838984601839"
"8220DB000903","Ranelagh, Chelmsford Road","53.3255834292541","-6.25249565673744"
"8220DB000904","Ranelagh, Appian Way","53.3274174409115","-6.24884751574078"
"8220DB000906","Leeson Street Upper","53.3288107659722","-6.24763437727541"
"8220DB000907","Ranelagh, Saint John's Ambulance Head Quarters","53.3297193588566","-6.25075010860467"
"8220DB000908","Dublin City South, Upper Leeson Street (Mespil Road)","53.3311542855348","-6.25237303421842"
"8220DB000909","Dublin City South, Lower Leeson Street","53.333147659918","-6.25407836385529"
"8220DB000956","Kilbarrack, Naomh Barrog GAA Club","53.3898318021104","-6.15290114572838"
"8220DB000958","Donaghmede, Saint Donagh's Estate","53.3909165331479","-6.16378528809523"
"8220DB000959","Donaghmede, Kilbarrack Road","53.3910184657007","-6.16690837598947"
"8220DB000960","Edenmore, Tonlegee Road","53.3911576199014","-6.17187930562013"
"8220DB000961","Edenmore, Saint Monica's Youth Centre","53.3910568299901","-6.17645454975127"
"8220DB000962","Edenmore, Tonlegee Road","53.3907949286211","-6.18285597422987"
"8220DB000969","Coolock, Northside Shopping Centre","53.3956824564158","-6.2154896382204"
"8220DB000972","Kilmore (Dublin City), Woodlawn Estate","53.3969960428841","-6.23492379932213"
"8220DB000980","Finglas, Mellowes Crescent","53.389804569147","-6.30303046268457"
"8220DB000981","Finglas, Mellowes Road","53.3897809067944","-6.30706083246079"
"8220DB000983","Finglas South, Mellowes Road","53.3901416743196","-6.31095569222063"
"8220DB000984","Finglas, Mellowes Road","53.3899113880259","-6.30675494955138"
"8220DB000985","Finglas, Mellowes Crescent","53.3899247513533","-6.30389772523613"
"8220DB000987","Finglas, Finglas Village (Seamus Ennis Road)","53.390219926862","-6.29937538551077"
"8220DB000993","Kilmore, Auldan Grange Estate","53.397702596997","-6.22922517485579"
"8220DB001005","Edenmore, Tonlegee Road","53.3909514065877","-6.1819170834231"
"8220DB001013","Dublin City South, Saint Stephen's Green House","53.3354815055116","-6.25755688072017"
"8220DB001014","Dublin City South, Earlsfort Terrace","53.335676496237","-6.25736873649439"
"8220DB001015","Dublin City South, Earlsfort Terrace","53.3327303534168","-6.25996635506886"
"8220DB001016","Portobello, Richmond Street Sth (Lennox Street)","53.331159314188","-6.26441458035511"
"8220DB001017","Rathmines, Grove Park","53.3292996511593","-6.26447506533583"
"8220DB001018","Ranelagh, Rathmines Road Lower (Richmond Hill)","53.3275709857126","-6.26489054678818"
"8220DB001019","Rathmines, Military Road","53.3265475976213","-6.26497711774679"
"8220DB001020","Rathmines, Rathmines Town Centre","53.325138383796","-6.26510936447965"
"8220DB001021","Rathmines, Rathmines Avenue","53.3213802466074","-6.26565212597859"
"8220DB001022","Rathmines, Summerville Park","53.3195217438255","-6.26455667416163"
"8220DB001023","Rathmines, Maxwell Road","53.3170461890185","-6.26491228899521"
"8220DB001024","Rathmines, Frankfort Avenue","53.3158523430749","-6.26502075611147"
"8220DB001025","Rathgar, Dartry Road (Sunbury Gardens)","53.3115998654594","-6.26247682304637"
"8220DB001026","Rathgar, Dartry Road","53.3091057707857","-6.26032708219741"
"8220DB001027","Dartry, South Hill","53.3087379400331","-6.25791094112817"
"8220DB001028","Dartry, Lower Churchtown Road","53.3084991105589","-6.2557146811215"
"8220DB001062","Dartry, Lower Churchtown Road","53.3082596341802","-6.2553192658689"
"8220DB001063","Dartry, South Hill","53.3085720815395","-6.25886311823078"
"8220DB001064","Rathgar, Dartry Road","53.3094291383453","-6.260929220589"
"8220DB001065","Rathgar, Dartry Road (Sunbury Gardens)","53.3118290249002","-6.26278268022841"
"8220DB001066","Rathgar, Upper Rathmines Road","53.3137534805829","-6.26408530832738"
"8220DB001067","Rathmines, Upper Rathmines Road","53.3170507712282","-6.26522730644198"
"8220DB001068","Rathmines, Rathmines Avenue","53.320558444719","-6.26538523670884"
"8220DB001069","Rathmines, Lower Rathmines Road","53.3232852636115","-6.26561989541274"
"8220DB001070","Rathmines, Rathmines Town Centre","53.3249801839816","-6.26535598291685"
"8220DB001071","Ranelagh, Rathmines Road Lower (Richmond Hill)","53.3272180361659","-6.26472471169493"
"8220DB001072","Portobello, Richmond Street Sth (Lennox Street)","53.3310269732592","-6.26458511395504"
"8220DB001074","Kelly's Corner, Charlotte Way","53.3337954595226","-6.26397720072466"
"8220DB001076","Rathmines, Lower Rathmines Road","53.3231305919114","-6.26549106260883"
"8220DB001077","Rathmines, Rathmines Garda Station","53.321572988534","-6.2665449849921"
"8220DB001078","Rathmines, Rathgar Road","53.3194127648938","-6.26880907035696"
"8220DB001079","Rathgar, Spar Rathgar Road","53.3166546241928","-6.27075187426881"
"8220DB001080","Rathgar, Rathgar Road, Auburn Villas","53.3149091987178","-6.27187306349646"
"8220DB001081","Rathgar, Rathgar Road (Highfield Road)","53.3126497028563","-6.27349517348773"
"8220DB001082","Rathgar, Terenure Road East","53.3116759487029","-6.27577063203852"
"8220DB001083","Terenure, Brighton Road","53.311145561259","-6.27825325307526"
"8220DB001085","Terenure, Terenure Road East","53.3100994852248","-6.28237731397305"
"8220DB001086","Terenure, Terenure Road West","53.3096695705149","-6.28560608300463"
"8220DB001087","Terenure, Garda Station","53.3103351137685","-6.28939126007519"
"8220DB001088","Kimmage, Terenure Road West","53.3109735887837","-6.29317763255717"
"8220DB001089","Terenure, Lavarna Grove","53.3116555855459","-6.29750266095148"
"8220DB001090","Kimmage, Kimmage Road West (Fortfield Road)","53.3121038877658","-6.30057644060381"
"8220DB001091","Kimmage, Whitehall Road (Kimmage Road West)","53.3124406081629","-6.30529057738079"
"8220DB001092","Manor Grove, Whitehall Road","53.3107438359013","-6.30922969689035"
"8220DB001093","Kimmage, Whitehall Road","53.3099785512678","-6.31167608469724"
"8220DB001113","Walkinstown, Glendale Park","53.3090231356625","-6.31530040274471"
"8220DB001114","Kimmage, Manor Grove","53.3103437349425","-6.31080626120506"
"8220DB001115","Kimmage, Whitehall Gardens","53.311598433175","-6.3073799923059"
"8220DB001117","Terenure, Lavarna Grove","53.3118906498583","-6.29822868798702"
"8220DB001118","Kimmage, Terenure Road","53.3113669927789","-6.29491782827779"
"8220DB001119","Kimmage, Terenure Road West","53.3109356902408","-6.29241376344752"
"8220DB001120","Terenure, Garda Station","53.3101981052294","-6.28798605930363"
"8220DB001121","Terenure, Terenure Cross Library","53.3090015976368","-6.28540774793682"
"8220DB001122","Terenure, Templeogue Road","53.3072196342858","-6.28837535252904"
"8220DB001123","Terenure, Lakeland's Park","53.3055770247341","-6.29103703014007"
"8220DB001124","Terenure, Templeogue Road","53.3041728176707","-6.2934038975232"
"8220DB001159","Terenure, Bushy Park","53.3023902202094","-6.29634084228485"
"8220DB001160","Rathfarnham, Terenure College","53.3043935295018","-6.29312500171527"
"8220DB001161","Terenure, Templeogue Road","53.3060631361465","-6.29046240113909"
"8220DB001162","Terenure, Rathdown Park","53.3077322505964","-6.2877695971447"
"8220DB001163","Terenure, Templeogue Road #1","53.3088733210488","-6.28586309179703"
"8220DB001164","Terenure, Terenure Road East","53.3104116361098","-6.28158440093591"
"8220DB001165","Rathgar, Terenure Road East","53.3117124365704","-6.27642950385614"
"8220DB001166","Rathgar, Rathgar Road, Winton Avenue","53.3138905067937","-6.27290478405396"
"8220DB001167","Rathgar, Rathgar Road (Garville)","53.3159449091946","-6.27139594843829"
"8220DB001168","Rathmines, Rathgar Road","53.3179291684206","-6.27000988256434"
"8220DB001169","Rathmines, Rathmines Park","53.3200562645616","-6.26855785990236"
"8220DB001170","Rathmines, Rathgar Road (Lower Rathmines Road)","53.3216895475245","-6.26652524878686"
"8220DB001171","Dublin, Lower Gardiner Street","53.3503176870253","-6.25426294905821"
"8220DB001172","Summerhill (Dublin City), Lower Gardiner Street","53.3517433497793","-6.25525621732706"
"8220DB001173","Summerhill (Dublin City), Gardiner Street Lower","53.3537055683595","-6.25667832329383"
"8220DB001174","Summerhill (Dublin City), Mountjoy Square Park","53.3561865814529","-6.25854512541131"
"8220DB001175","Dublin, Upper Gardiner Street","53.3585323776303","-6.2610035953952"
"8220DB001176","Priorswood, Sports Grounds","53.3993550470634","-6.22187780324994"
"8220DB001177","Priorswood, Sports Grounds (Opposite)","53.4008973630828","-6.22525748280848"
"8220DB001178","Priorswood, Business Park","53.4034534096905","-6.21884924282634"
"8220DB001179","Priorswood, Clonsaugh Und.Est, Business Park","53.3999311495912","-6.21892118309902"
"8220DB001184","Dublin, Talbot Street (opp Bank of Ireland)","53.3508599227592","-6.25385022800029"
"8220DB001185","Beaumont (Dublin City), Collins Avenue (Oak Road)","53.3763670141117","-6.22151304646931"
"8220DB001186","Beaumont (Dublin City), Collins Avenue","53.3776431058353","-6.2263299378604"
"8220DB001187","Beaumont (Dublin City), Saint Vincent's Court","53.3786075086935","-6.23135544113251"
"8220DB001188","Beaumont, Grace Park Heights","53.3800184911121","-6.23559608319276"
"8220DB001190","Beaumont (Dublin City), Collinswood Estate","53.3801561172398","-6.23578580779391"
"8220DB001191","Beaumont, Grace Park Heights","53.379217188348","-6.23307384015299"
"8220DB001192","Beaumont, Collins Avenue (Celtic Park Road)","53.3786331967642","-6.23066293111023"
"8220DB001193","Beaumont (Dublin City), Grace Park Meadows","53.377992199131","-6.22744276884899"
"8220DB001194","Beaumont (Dublin City), Collins Avenue","53.3775262086269","-6.22511728190611"
"8220DB001195","Beaumont (Dublin City), Collins Avenue (Oak Road)","53.3763899322009","-6.22124153964156"
"8220DB001196","Beaumont (Dublin City), Malahide Road (Killester Avenue)","53.3780410337894","-6.21443872164016"
"8220DB001197","Beaumont (Dublin City), Malahide Road (Kilmore Road)","53.3792322771511","-6.21175833300343"
"8220DB001198","Artane, Artane Roundabout","53.3825121951908","-6.20691559067282"
"8220DB001199","Artane, Mask Avenue","53.3849844627771","-6.20276761448293"
"8220DB001200","Coolock, Chanel College","53.3869626486611","-6.20103048909789"
"8220DB001201","Coolock, Greencastle Road","53.3907898125494","-6.19614784293642"
"8220DB001202","Darndale, junction Greencastle Road","53.3925013826625","-6.19342905043287"
"8220DB001203","Darndale, Priorswood Roundabout","53.3967263536286","-6.18753567030061"
"8220DB001205","Clare Hall, Malahide Road (N32)","53.4015026048782","-6.18185822928644"
"8220DB001218","Darndale, Belcamp Lane","53.3997058969218","-6.18428091971538"
"8220DB001219","Artane, Malahide Road (Daneli Road)","53.3813021270883","-6.20833439206846"
"8220DB001220","Beaumont (Dublin City), Malahide Road (Killester Avenue)","53.3787625062934","-6.21219890153818"
"8220DB001221","Donnycarney, Maypark","53.3768165000717","-6.21609825408438"
"8220DB001222","Artane, Ardcollumn Avenue","53.3840661618351","-6.20685028183393"
"8220DB001223","Artane, Ardlea Road, Chanel Ave","53.3852506198767","-6.20851435239853"
"8220DB001224","Artane, Ardlea Road (near A1 pub)","53.3866441577943","-6.21093649115354"
"8220DB001225","Artane, Maryfield Drive","53.3868593792141","-6.21390426931253"
"8220DB001226","Beaumont (Dublin City), Kilmore Road (Ardmore Drive)","53.3881137990287","-6.21484404421164"
"8220DB001227","Coolock, Kilmore Road (Castlekevin Road)","53.3911373107638","-6.2150783660515"
"8220DB001228","Kilbarron Road (Cromcastle Drive)","53.3924289764997","-6.21851273726687"
"8220DB001229","Kilmore, Kilbarron Road (Dundaniel Road)","53.394311601171","-6.22542628929815"
"8220DB001231","Kilmore, Castletimon Road (Castletimon Avenue)","53.3954889982924","-6.22784342643998"
"8220DB001232","Kilmore, Castletimon Road","53.3952854835247","-6.23048341001448"
"8220DB001233","Kilmore, Ballyshannon Road","53.3943619873989","-6.23124350090559"
"8220DB001234","Kilmore, Castletimon Road","53.3946878729367","-6.23261339665844"
"8220DB001235","Kilmore, Dundaniel Road (Kilbarron Road)","53.3947366846993","-6.22560408418955"
"8220DB001237","Kilbarron Road (Cromcastle Drive)","53.3926786799977","-6.21898347230117"
"8220DB001238","Kilmore (Dublin City), Kilmore Rd, Kilmore Ave","53.391746097937","-6.21491756495442"
"8220DB001239","Artane, Kilmore Place Apartments","53.3894921658749","-6.21505699528475"
"8220DB001240","Artane, Ardlea Road (near A1 pub)","53.386818428028","-6.21116973233954"
"8220DB001241","Artane, Ardlea Road, Chanel Ave","53.3858794293685","-6.20908930804697"
"8220DB001242","Artane, Ardbeg Road","53.3844919489036","-6.20707292281256"
"8220DB001243","Darndale, Greencastle Road","53.3949003131465","-6.19991374132292"
"8220DB001244","Kilmore, Kilbarron Road (Cromcastle Green)","53.392907241618","-6.22044750297321"
"8220DB001245","Priorswood, Glin Road","53.3979972686887","-6.20621940955621"
"8220DB001246","Kilmore, Saint Luke's Church","53.3934932334612","-6.22297928856435"
"8220DB001247","Darndale, Greencastle Road","53.3950810945047","-6.19998129722481"
"8220DB001248","Darndale, Coolock Industrial Estate","53.3929893358591","-6.19716752337167"
"8220DB001249","Darndale, Coolock Drive","53.3951809648939","-6.20124021736039"
"8220DB001250","Coolock, Civic Centre Northside","53.3937390060985","-6.20755634582158"
"8220DB001251","Kilmore, Saint Luke's Church","53.3934573359087","-6.22237931759761"
"8220DB001253","Coolock, Kilmore Road (Tranquility Grove)","53.3938639430705","-6.21469359247895"
"8220DB001254","Coolock, Bunratty Road","53.3951173598288","-6.21136299643065"
"8220DB001255","Bonnybrook, Bunratty Road","53.3943535024668","-6.20897407318872"
"8220DB001256","Coolock, Northside Civic Centre","53.3936309457702","-6.20694437999343"
"8220DB001258","Darndale, Priorswood Industrial Park","53.3981874224965","-6.19082713583414"
"8220DB001259","Darndale, Marigold Estate","53.3985904097502","-6.19488548450884"
"8220DB001260","Darndale, Priorswood Road","53.4001778029071","-6.19881868347104"
"8220DB001262","Darndale, Fairfield Estate","53.4020042292113","-6.20490781615753"
"8220DB001265","Darndale, Buttercup Estate","53.3982215297187","-6.1907053813919"
"8220DB001266","Priorswood, Saint Francis Church","53.4020554115132","-6.20472518436231"
"8220DB001267","Darndale, Ferrycarrig Park","53.4008555065952","-6.20024887014072"
"8220DB001268","Darndale, Belcamp Avenue","53.3998942675419","-6.19789824293482"
"8220DB001269","Darndale, Marigold Estate","53.3984289595154","-6.19371931703884"
"8220DB001270","Edenmore, Darndale Roundabout","53.3964970026771","-6.18722962380566"
"8220DB001272","Edenmore, Newton Cottages","53.39288238223","-6.19187918573742"
"8220DB001273","Coolock, Greencastle Road","53.3911092146002","-6.19527728871218"
"8220DB001274","Coolock, Saint Brendan's Church","53.3889388170293","-6.19797019366682"
"8220DB001275","Artane, Mask Avenue","53.3855857653299","-6.20211085795644"
"8220DB001276","Artane, Saint Brendan's Avenue","53.3843305541122","-6.20291542866154"
"8220DB001277","Artane, Artane Roundabout","53.3826814602055","-6.20621696361687"
"8220DB001278","College Green","53.3442366224341","-6.26130011810005"
"8220DB001279","College Green","53.3442604935958","-6.26170466649104"
"8220DB001280","Finglas, McKelvey Avenue","53.4001962883489","-6.30314329259755"
"8220DB001282","Dublin City South, South Great George's Street","53.3423417958791","-6.26450108272731"
"8220DB001283","Dublin City South, South Great George's Street","53.3418087219064","-6.26492822950034"
"8220DB001284","Dublin City South, Redmond's Hill","53.3381283509666","-6.26587355723325"
"8220DB001285","Dublin City South, Grantham Street","53.3343784055882","-6.2651247542572"
"8220DB001286","Kelly's Corner, Harrington Street Garda Club","53.3324996494988","-6.26572653484079"
"8220DB001287","Kelly's Corner, Harrington Street","53.3324783725629","-6.2661177906657"
"8220DB001288","Dublin City South, South Circular Road (Victoria St)","53.3323227536326","-6.26963762234935"
"8220DB001289","Leonard's Corner, South Circular Road (Longwood Ave)","53.332129361318","-6.27303883277026"
"8220DB001290","Leonard's Corner, Upper Clanbrassil Street","53.3307310456544","-6.27516731880573"
"8220DB001291","Harolds Cross, Le Vere Terrace","53.3284466111552","-6.2763104414061"
"8220DB001292","Harolds Cross, Saint Clare's Convent","53.325624605135","-6.27819570402243"
"8220DB001293","Harolds Cross, Harold's Cross Race Track","53.3228603639121","-6.27910262973284"
"8220DB001294","Harolds Cross, Harold's Cross Road","53.3206000262741","-6.27880330627753"
"8220DB001295","Harolds Cross, Harold's Cross Road (Rathgar Avenue)","53.3179148923066","-6.27958681712633"
"8220DB001296","Rathgar, Mount Tallant Avenue","53.3155627461345","-6.28164762292477"
"8220DB001297","Terenure, Terenure Road North","53.3124096124176","-6.28238961414195"
"8220DB001298","Terenure, Elm Park Terrace","53.3107469924722","-6.28302665100769"
"8220DB001299","Terenure, Terenure Road","53.3083957027798","-6.28390135641413"
"8220DB001300","Terenure, Rathfarnham Road","53.3061507463854","-6.28342117670723"
"8220DB001335","Terenure, War Memorial Hall","53.3074174243547","-6.28400061997863"
"8220DB001336","Terenure, Terenure Road","53.3089009059751","-6.28403115972447"
"8220DB001337","Terenure, Terenure Road North","53.311179037374","-6.2830693410482"
"8220DB001338","Terenure, Whitton Road","53.3124303862627","-6.28258388430717"
"8220DB001339","Rathgar, Mount Tallant Avenue","53.3150238623404","-6.28229964697715"
"8220DB001340","Terenure, Harold's Cross Road","53.3164701422711","-6.28099578090549"
"8220DB001341","Harolds Cross, Harold's Cross Road (Rathgar Avenue)","53.3192275894617","-6.27899363575735"
"8220DB001342","Harolds Cross, Harold's Cross Road","53.321345499098","-6.27938875924039"
"8220DB001343","Harolds Cross, Shamrock Villas Estate","53.3226672850414","-6.27942564411739"
"8220DB001344","Harolds Cross, Harold's Cross Road (Greenmount Lane)","53.327171064381","-6.27760796335838"
"8220DB001345","Harolds Cross, Le Vere Terrace","53.3287960763033","-6.27623629638881"
"8220DB001347","Leonard's Corner, Upper Clanbrassil Street","53.3311830098566","-6.27534427274469"
"8220DB001348","Leonard's Corner, South Circular Road (Longwood Ave)","53.3322495353619","-6.27388983282421"
"8220DB001349","South Circular Road (Carlisle St)","53.3323857279044","-6.27088132287856"
"8220DB001350","Kelly's Corner, Saint Kevin's Church","53.3325610927812","-6.26748081181986"
"8220DB001352","Dublin City South, Upper Camden Street","53.3344454316074","-6.26540733380828"
"8220DB001353","Dublin City South, Camden Street","53.3360095336299","-6.26541893799966"
"8220DB001354","Dublin City South, Aungier Street","53.3390480888871","-6.2660765148576"
"8220DB001355","Dublin City South, Whitefriars Street Church","53.3400962425888","-6.26583875541446"
"8220DB001357","Dublin City South, Exchequer Street","53.3425678944056","-6.26459703020816"
"8220DB001358","Temple Bar, Central Bank","53.344304713385","-6.26288938939082"
"8220DB001359","College Green","53.3443994063613","-6.26136859043366"
"8220DB001360","Leonard's Corner, South Circular Road (Clanbrassil St)","53.3319833877849","-6.27661827752552"
"8220DB001362","Leonard's Corner, National Stadium","53.3312039603907","-6.27990787352224"
"8220DB001363","Warrenmount, South Circular Road (Clogher Road)","53.3318459312211","-6.28516726502174"
"8220DB001365","Dolphins Barn, Dolphin's Barn Church","53.3329015319242","-6.29045531304391"
"8220DB001366","Rialto, Church Avenue South","53.3351498676844","-6.29431459059538"
"8220DB001367","Rialto, Rialto Parish Centre","53.3356393066347","-6.29648741554549"
"8220DB001369","Kilmainham, South Circular Road (Mountshannon Road)","53.3388672150255","-6.30224552041051"
"8220DB001370","Kilmainham, Hybreasal House","53.3391885807998","-6.30525124556593"
"8220DB001371","Kilmainham, Suir Road (S Circular Rd)","53.3388761644861","-6.30793670636023"
"8220DB001372","Hybreasal, Kickham Road","53.3381036945483","-6.30987444642345"
"8220DB001373","Goldenbridge, Goldenbridge Avenue","53.337774759112","-6.31203486545017"
"8220DB001374","Inchicore, Southern Cross Avenue","53.3392177102595","-6.31301407116772"
"8220DB001375","Inchicore, Bulfin Road","53.3395561606215","-6.31215973185631"
"8220DB001376","Kilmainham, Bulfin Road","53.3395079105859","-6.30875267180088"
"8220DB001377","Kilmainham, The Paddocks","53.3391633646051","-6.3047416552708"
"8220DB001378","Kilmainham, South Circular Road (Mountshannon Road)","53.338827874904","-6.30137608273126"
"8220DB001379","Kilmainham, Rialto Bridge","53.3373397013519","-6.2991226532094"
"8220DB001380","Rialto, South Circular Road","53.3356410022626","-6.2959767991197"
"8220DB001381","Dolphins Barn, South Circular Road (Haroldville Avenue)","53.3351237466265","-6.29374502629881"
"8220DB001382","Dolphins Barn, Dolphin's Barn Church","53.3331731706702","-6.29059460205893"
"8220DB001383","Dolphins Barn, South Circular Road (Dolphin Ave)","53.3322710783542","-6.28660666292572"
"8220DB001384","Warrenmount, South Circular Road (Clogher Road)","53.3313561981831","-6.28236415375616"
"8220DB001385","Leonard's Corner, South Circular Road (Greenville Tce)","53.3318004002729","-6.27826227183309"
"8220DB001386","Harolds Cross, Clogher Road (Parnell Road)","53.3295526186271","-6.28444849901105"
"8220DB001387","Harolds Cross, Clogher Road (Aughavanagh Road)","53.3280405493677","-6.28680623917293"
"8220DB001388","Kimmage, Goldstone Court","53.3267732721467","-6.29119578868495"
"8220DB001389","Dolphins Barn, Saint Bernadette's Church","53.3260882238627","-6.29545677509689"
"8220DB001396","Crumlin, Pearse Memorial Park","53.3249002682378","-6.31496013722765"
"8220DB001397","Crumlin, Pearse Memorial Park","53.3250914014139","-6.31385670005284"
"8220DB001398","Crumlin, Kildare Road (Windmill Road)","53.3253013793644","-6.31027545066518"
"8220DB001399","Crumlin, Kildare Road (Clonard Road)","53.3251428005771","-6.30543270310374"
"8220DB001401","Crumlin, Clogher Road","53.3253968158929","-6.29865198476899"
"8220DB001402","Dolphins Barn, Saint Bernadette's Church","53.325987931117","-6.29598621972538"
"8220DB001403","Kimmage, Goldstone Court","53.3271540648862","-6.28954413336686"
"8220DB001404","Harolds Cross, Clogher Road (Aughavanagh Road)","53.3282005181173","-6.28667972051609"
"8220DB001405","Harolds Cross, Clogher Road (Parnell Road)","53.3298216746236","-6.28440767368218"
"8220DB001406","Dolphins Barn, Dolphin's Barn","53.3331529314518","-6.29169152684099"
"8220DB001407","Dolphins Barn, Crumlin Road, Rutland Avenue","53.33153850277","-6.29444367690884"
"8220DB001409","Dolphins Barn, Crumlin Road, Sundrive Road","53.3303667447648","-6.29735815557588"
"8220DB001410","Drimnagh, Keeper Road (Sundrive Road)","53.3314169223623","-6.29977873066415"
"8220DB001411","Drimnagh, Keeper Road (Brickfield Road)","53.3320510264254","-6.30328200417234"
"8220DB001412","Drimnagh, Brickfields Park","53.3326816543057","-6.30591464267836"
"8220DB001413","Drimnagh, Mourne Road (Brickfields Park)","53.3334413912375","-6.30878249418882"
"8220DB001414","Drimnagh, Mourne Road","53.3333476064724","-6.31231480140328"
"8220DB001415","Drimnagh, Mourne Road","53.3324432485375","-6.31637452092601"
"8220DB001417","Drimnagh, Our Lady Of Mercy School","53.3310322127926","-6.31956811898517"
"8220DB001418","Drimnagh, Mourne Road (Cooley Road)","53.3300297592351","-6.32306077006057"
"8220DB001419","Drimnagh, Errigal Road (Brandon Road)","53.3277177272247","-6.3229112430655"
"8220DB001423","Drimnagh, Drimnagh Road (Our Lady's Hospital for Sick Children)","53.3249994890335","-6.31944492192627"
"8220DB001424","Drimnagh, Crumlin Road (Cooley Road)","53.3256625125853","-6.31674662153124"
"8220DB001425","Drimnagh, Cooley Road (Our Lady's Hospital for Sick Children)","53.3270131719758","-6.31819475352095"
"8220DB001426","Drimnagh, Cooley Road","53.3292748788446","-6.32242977116861"
"8220DB001427","Drimnagh, Mourne Road (Cooley Road)","53.3302711584121","-6.32233061937906"
"8220DB001428","Drimnagh, Our Lady Of Mercy School","53.3313588786113","-6.31914988401267"
"8220DB001429","Drimnagh, Mourne Road","53.3325932071671","-6.31617341926304"
"8220DB001430","Drimnagh, Mourne Road","53.3335737954735","-6.31114968646878"
"8220DB001432","Drimnagh, Mourne Road (Brickfields Park)","53.3334987403056","-6.30838982573818"
"8220DB001433","Drimnagh, Brickfields Park","53.3325721531997","-6.30579886199235"
"8220DB001434","Drimnagh, Keeper Road (Brickfield Road)","53.3319924475904","-6.30232337915273"
"8220DB001435","Drimnagh, Keeper Road (Sundrive Road)","53.3313880462685","-6.29901413246615"
"8220DB001436","Dolphins Barn, Crumlin Road, Herberton Road","53.3308849576932","-6.29651171993406"
"8220DB001438","Warrenmount, Saint Thomas Road","53.3363829768538","-6.27941413618385"
"8220DB001439","Warrenmount, Donore Credit Union","53.3340584156796","-6.28276609921309"
"8220DB001440","Warrenmount, Donore Avenue","53.3319900593805","-6.28331465216846"
"8220DB001441","Crumlin, Kildare Road (Bangor Road)","53.3248749009902","-6.30302633322185"
"8220DB001442","Crumlin, Kildare Road (Clonard Road)","53.3251668742239","-6.30712815477078"
"8220DB001443","Dublin City South, Essex Quay","53.3451293906923","-6.26953955862608"
"8220DB001444","Dublin City South, Merchant's Quay","53.3451184146618","-6.27374547145289"
"8220DB001445","James's Gate, Ushers Quay","53.3456784102525","-6.2782888396172"
"8220DB001447","James's Gate, Guinness Store","53.3466296445148","-6.28817874961118"
"8220DB001449","Phoenix Park, Conyngham Road Bus Garage","53.3481528299949","-6.29789609467721"
"8220DB001450","Phoenix Park, Wellington Monument","53.3481554042344","-6.30186141311769"
"8220DB001451","Islandbridge, Bridgewater Business Centre","53.3482782789353","-6.30544644496588"
"8220DB001452","Islandbridge, Clancy Barracks","53.3455838768388","-6.30812166341736"
"8220DB001453","Drimnagh, Galtymore Rd (Slievenamon Rd)","53.3345361691504","-6.30675710143038"
"8220DB001454","Kilmainham, Suir Road (O'Leary Rd)","53.3377755530274","-6.30764991026496"
"8220DB001455","Drimnagh, GAA Grounds","53.3353851151101","-6.30577746031336"
"8220DB001456","Drimnagh, Galtymore Road (Galtymore Dr)","53.334873309138","-6.30898110692312"
"8220DB001457","Drimnagh, Galtymore Road (Benbulbin Rd)","53.3353026586989","-6.31264303832719"
"8220DB001458","Drimnagh, Galtymore Road (Sperrin Rd)","53.3347706199223","-6.31697357484942"
"8220DB001459","Drimnagh, Galtymore Road (Carrow Rd)","53.3340633154256","-6.31971923722773"
"8220DB001460","Drimnagh, Galtymore Road (Galtymore Pk)","53.3323561008246","-6.32103258420222"
"8220DB001462","Drimnagh, Galtymore Road (Cooley Road)","53.3304629315882","-6.32382451982613"
"8220DB001463","Drimnagh, Galtymore Road (Cooley Road)","53.3306239948586","-6.32377316172964"
"8220DB001464","Drimnagh, Galtymore Road (Sperrin Rd)","53.3348988015381","-6.31650303670369"
"8220DB001465","Drimnagh, Galtymore Road (Galtymore Dr)","53.3347967644626","-6.30865378723676"
"8220DB001466","Drimnagh, Galtymore Rd (Slievenamon Rd)","53.3345289258282","-6.30624685358976"
"8220DB001467","Drimnagh, GAA Grounds","53.3356573760233","-6.30596187788384"
"8220DB001468","Kilmainham, Suir Road (O'Leary Rd)","53.3375666016185","-6.30749299954438"
"8220DB001469","Drimnagh, Galtymore Road (Benbulbin Rd)","53.3352591593202","-6.31338053815391"
"8220DB001471","Islandbridge, Islandbridge Court","53.3455323201996","-6.3082889204929"
"8220DB001472","Islandbridge, Bridgewater Centre","53.3484294679782","-6.30596616966113"
"8220DB001473","Phoenix Park, Conyngham Road Bus Depot","53.3483059784729","-6.29855089897715"
"8220DB001474","Heuston Station, Heuston Bridge","53.3479479159584","-6.29236170464093"
"8220DB001476","Wolfe Tone Quay, Ellis Street","53.3470018224172","-6.28467916066221"
"8220DB001478","Smithfield, Inns Quay","53.3456460888696","-6.27294312668563"
"8220DB001479","Dublin, Upper Ormond Quay","53.3459159600278","-6.26923734421886"
"8220DB001480","Smithfield, Ormond House","53.3456934492702","-6.2706281736218"
"8220DB001481","Fairview, Philipsburgh Avenue (Melrose Avenue)","53.3650538686119","-6.23989609720882"
"8220DB001482","Marino, Griffith Avenue (Charlemont Estate)","53.3717085781519","-6.2364806455537"
"8220DB001484","Fairview, Turlough Gardens","53.363697709108","-6.2399670293288"
"8220DB001485","Fairview, Turlough Gardens","53.3640458176992","-6.23980241692247"
"8220DB001486","Fairview, Philipsburgh Avenue (Croydon Gardens)","53.3709747783035","-6.23852480902206"
"8220DB001487","Marino, Griffith Avenue (Charlemont Estate)","53.3718192548925","-6.23667144996373"
"8220DB001488","Marino, Saint Mary's College","53.3710888554238","-6.23468777023624"
"8220DB001489","Marino, Saint Vincent De Paul Church","53.3701586652324","-6.23196100760236"
"8220DB001490","Griffith Avenue (Malahide Road)","53.36887682169","-6.22855766174829"
"8220DB001491","Griffith Avenue (Malahide Road)","53.3684677618855","-6.22764290979838"
"8220DB001492","Marino, Saint Vincent De Paul Church","53.3702573904197","-6.23255805716234"
"8220DB001493","Marino, Saint Mary's College","53.3712134044589","-6.23520862720418"
"8220DB001494","Marino, Croydon Gardens","53.3706730149261","-6.23574194163253"
"8220DB001495","Marino, Croydon Park Avenue","53.3687559405685","-6.23556569739488"
"8220DB001496","Marino, Marino Green","53.3671481166124","-6.23381383826092"
"8220DB001499","Marino, Brian Road","53.3657794887071","-6.23729658684485"
"8220DB001500","Outside Connolly Station","53.3510395889035","-6.25016257775478"
"8220DB001505","Rotunda, Parnell Street","53.3540289631818","-6.2578969848714"
"8220DB001506","Glasnevin, Finglas Road","53.3667778214166","-6.27237390919528"
"8220DB001507","Glasnevin, Saint Vincent's School","53.368390520312","-6.27450269164138"
"8220DB001508","Glasnevin, Claremont Court","53.3699109022633","-6.27833355115681"
"8220DB001509","Finglas South, Finglas Road","53.3729258340421","-6.28422366048831"
"8220DB001510","Glasnevin, Finglas Road","53.3769069295213","-6.28731023718711"
"8220DB001511","Finglas South, Finglas Road (Opp Old Finglas Road)","53.3782345231781","-6.28775298457067"
"8220DB001512","Finglas South, Ardmore Hotel","53.3821743223388","-6.29172883549396"
"8220DB001514","Finglas Village (Seamus Ennis Road)","53.3894651562214","-6.30002191446059"
"8220DB001515","Fairview,St. Aidan's Park Road","53.3661143161413","-6.23319541821689"
"8220DB001518","Finglas South, Kildonan Road","53.3906003885099","-6.31161412406028"
"8220DB001519","Finglas, Kildonan Road","53.39244486956","-6.31175161798526"
"8220DB001520","Finglas, Barry Road","53.393920198925","-6.31184358657785"
"8220DB001521","Finglas, Plunkett Green","53.3972212992971","-6.31075049408942"
"8220DB001523","Finglas, Plunkett Avenue","53.3978788506134","-6.30958155709762"
"8220DB001524","Finglas, Barry Aveune","53.3955562648928","-6.31059088714389"
"8220DB001525","Finglas, Barry Road","53.3940692958004","-6.31158206161738"
"8220DB001526","Finglas, Kildonan Park","53.3923069370311","-6.31153153662509"
"8220DB001528","Cabra East, Phoenix Manor","53.3561954281552","-6.29400002572951"
"8220DB001529","Glasnevin, Saint Canice's Church","53.3884588269273","-6.29815260689777"
"8220DB001531","Glasnevin, Clearwater Shopping Centre","53.3837436640274","-6.29336474093086"
"8220DB001532","Glasnevin, Ardmore Hotel","53.381744117229","-6.29055850090005"
"8220DB001533","Glasnevin, Finglas Road","53.378967884758","-6.2874980880021"
"8220DB001534","Glasnevin, Ballyboggan Road","53.375332839158","-6.28597560287496"
"8220DB001535","Glasnevin, Willows Estate","53.3723059581374","-6.28236994393799"
"8220DB001536","Cabra East, Glasnevin Cemetery Main Gate","53.3696260284827","-6.27727804257368"
"8220DB001537","Glasnevin, Saint Vincent's School","53.3680662049778","-6.27320839893701"
"8220DB001538","Finglas South, Finglas Road","53.3844741413118","-6.29479375491463"
"8220DB001539","Glasnevin, Glasanaon Road","53.3831357990658","-6.27919801572373"
"8220DB001540","Glasnevin, Johnstown Park (Griffith Road)","53.3843403099774","-6.28420062884396"
"8220DB001547","Finglas, Mellowes Park","53.3952411658158","-6.30168636640583"
"8220DB001548","Finglas, McKee Avenue","53.3961101450105","-6.30274949327834"
"8220DB001549","Finglas, Casement Road","53.3974326561122","-6.30663678307137"
"8220DB001558","Finglas, Saint Margaret's Road","53.3998175109931","-6.30305309451758"
"8220DB001559","Finglas, Casement Road","53.3973411212961","-6.30652011500249"
"8220DB001560","Finglas, Roundabout McKee Avenue","53.397007542354","-6.30454838145878"
"8220DB001566","Glasnevin, Johnstown Park (Griffith Road)","53.3844074206077","-6.28386719661232"
"8220DB001567","Glasnevin, Johnstown Park","53.3840139569876","-6.28026002177018"
"8220DB001573","Finglas South, Cardiffsbridge Road","53.3840241647317","-6.31246066242432"
"8220DB001574","Finglas South, Scout's Den","53.3855939979914","-6.31287964710487"
"8220DB001575","Finglas South, Colaiste Ide","53.3870661425714","-6.31274625802596"
"8220DB001576","Finglas South, Cappagh Road","53.3893174054908","-6.31304812471741"
"8220DB001577","Finglas South, Abbottstown Road","53.3898858080548","-6.31574701686645"
"8220DB001578","Finglas, Cappagh Road","53.3903851294541","-6.31801267740452"
"8220DB001579","Finglas, Cappagh Hospital","53.3935215772436","-6.32373817662827"
"8220DB001582","Finglas, Cappagh Hospital","53.3927698845652","-6.32205359231629"
"8220DB001584","Finglas South, Abbottstown Road","53.3898854600296","-6.31508548205008"
"8220DB001585","Finglas South, Church of the Annunciation","53.3887680197446","-6.31233314490447"
"8220DB001586","Finglas South, Colaiste Ide","53.3865250406196","-6.31261731806413"
"8220DB001587","Finglas South, Cardiffsbridge Road","53.383466430314","-6.3117912065007"
"8220DB001591","Finglas South, Wellmount Road (Finglasa Road)","53.3871387918528","-6.29949821324412"
"8220DB001592","Finglas South, Tolka Valley Road","53.379720918945","-6.28924160522583"
"8220DB001593","Finglas South, Tolka Valley Park","53.3789147733946","-6.29445974940212"
"8220DB001594","Finglas South, Gortbeigh Avenue","53.3807131944305","-6.29766484522039"
"8220DB001595","Finglas South, Saint Helena's Road (Gortmore Avenue)","53.3807395003043","-6.29761869973186"
"8220DB001596","Finglas South, Saint Helena's Road (Farnham Drive)","53.3830410953015","-6.30081905725315"
"8220DB001597","Finglas South, Valeview Gardens","53.3804552155942","-6.30923466596562"
"8220DB001598","Finglas South, Bearnamore Estate","53.38024217803","-6.3056204400567"
"8220DB001599","Finglas South, Glenties Estate","53.3808997507107","-6.31079541615785"
"8220DB001600","Finglas South, Deanstown Avenue","53.3835970178865","-6.31276318351181"
"8220DB001604","Finglas South, Rathvilly Park","53.3837454770658","-6.31627504223633"
"8220DB001606","Finglas South, Saint Helena's Road","53.380370683576","-6.30644208983686"
"8220DB001607","Finglas South, Dunsink Green","53.3821613835434","-6.30342464753537"
"8220DB001608","Finglas South, Saint Helena's Community Centre","53.3830498568531","-6.29954091872958"
"8220DB001609","Finglas South, Cloonlara Estate","53.3803842380755","-6.29728713957775"
"8220DB001610","Finglas South, Tolka Valley Road","53.3788077072716","-6.2964030706551"
"8220DB001614","Dublin, Constitution Hill","53.3512573878221","-6.27375276357381"
"8220DB001615","Smithfield, Law Library","53.3478271653616","-6.27459733233133"
"8220DB001616","Smithfield, Law Library","53.347285072294","-6.27502477300754"
"8220DB001617","Smithfield, Capuchin Mission Office","53.3491697338082","-6.27482850622983"
"8220DB001618","Grangegorman (Dublin City), Church Street","53.3508870581217","-6.2742484187074"
"8220DB001619","Grangegorman, Kings Inn","53.3529126950418","-6.27323519870162"
"8220DB001620","Whitehall, Swords Road","53.383263520351","-6.24415098447475"
"8220DB001641","Whitehall, Swords Road","53.3865272844342","-6.2423929664579"
"8220DB001642","Whitehall, Whitehall Church","53.3840017852059","-6.24362450358359"
"8220DB001643","Whitehall (Dublin City), Saint Aidan's School","53.3844816109337","-6.24997893127301"
"8220DB001647","Wolfe Tone Quay, Law Society","53.348351063568","-6.2822517262027"
"8220DB001648","Arbour Hill, Arbour Place","53.3510913675303","-6.28280248510502"
"8220DB001649","Arbour Hill, Aughrim Street","53.3525701350131","-6.28438044847903"
"8220DB001654","Cabra East, Blackhorse Avenue","53.3561451797295","-6.29425742995531"
"8220DB001655","Cabra, Blackhorse Avenue (Glenbeigh Avenue)","53.356732171847","-6.29696827411514"
"8220DB001656","Cabra, McKee Barracks","53.3572972790002","-6.29877863774803"
"8220DB001657","Cabra, Blackhorse Avenue","53.3583921080637","-6.30307699923701"
"8220DB001658","Cabra, Skreen Road (Ardpatrick Road)","53.3619888217441","-6.30951518790604"
"8220DB001659","Cabra, Skreen Road (Navan Road)","53.3632599650494","-6.30471669903602"
"8220DB001660","Cabra, Navan Road (Nephin Road)","53.3651865517873","-6.30937355306517"
"8220DB001661","Cabra, Navan Road (Church)","53.3664436172409","-6.31309553779386"
"8220DB001662","Cabra, Navan Road (Kinvara Estate)","53.3675406916951","-6.31759043995833"
"8220DB001664","Cabra, Navan Road (Ashtown Grove)","53.3694085180285","-6.32385863047439"
"8220DB001665","Ashtown, Navan Road","53.3706578377534","-6.32770193003479"
"8220DB001666","Ashtown, Ashtown Roundabout","53.3715971506478","-6.33059573112209"
"8220DB001667","Ashtown, Ashtown Gate","53.3708697670474","-6.33450151947604"
"8220DB001668","Ashtown, Old Race Course","53.3708427403677","-6.34030355015358"
"8220DB001694","Ashtown, Old Race Course","53.3710173888657","-6.33993607589947"
"8220DB001695","Ashtown, Ashtown Gate","53.3710101423756","-6.33425558646775"
"8220DB001696","Ashtown, Navan Road","53.3715415173176","-6.32983144331411"
"8220DB001697","Ashtown, Kempton Estate","53.3708011457454","-6.32766625894216"
"8220DB001698","Cabra, Navan Road (Ashtown Grove)","53.3695772972019","-6.32371675132509"
"8220DB001699","Ashington, Navan Road","53.3687436056718","-6.32131499536448"
"8220DB001700","Cabra, Navan Road (Kinvara Estate)","53.3677088280568","-6.31740348546715"
"8220DB001701","Cabra, Navan Road (Church)","53.3665672561416","-6.31294038272442"
"8220DB001702","Cabra, Navan Road (Nephin Road)","53.3656108301727","-6.31013813858873"
"8220DB001703","Cabra, Navan Road","53.3647353990213","-6.30734783376241"
"8220DB001704","Cabra, Skreen Road (Navan Road)","53.363052266208","-6.30528089867268"
"8220DB001705","Cabra, Skreen Road (Ardpatrick Road)","53.3621807471602","-6.30847083369411"
"8220DB001706","Cabra, Cemetery","53.3600698255997","-6.30729237527244"
"8220DB001707","Cabra, Blackhorse Avenue","53.358428266349","-6.30245957267131"
"8220DB001708","Cabra, McKee Barracks","53.3573323544747","-6.29871714548453"
"8220DB001709","Cabra, Blackhorse Avenue (Glenbeigh Avenue)","53.3568682016769","-6.29705299143727"
"8220DB001710","Arbour Hill, Drumalee Estate","53.3555699040255","-6.29174149147947"
"8220DB001711","Arbour Hill, The Holy Family Church","53.3545779754891","-6.28963290156871"
"8220DB001712","Arbour Hill, Aughrim Street","53.3533339170032","-6.28624259176384"
"8220DB001713","Arbour Hill, Stanhope Street Convent","53.351907820017","-6.28332547345323"
"8220DB001714","Arbour Hill, Brunswick Street","53.3506378069371","-6.28188938800201"
"8220DB001715","Smithfield, Blackhall Street","53.3477119821784","-6.28218729951856"
"8220DB001724","Dollymount, Clontarf Road (near Mount Prospect Ave)","53.3657153153763","-6.17444158948899"
"8220DB001725","Dollymount, Doyle's Lane","53.3637602626912","-6.17707965691367"
"8220DB001726","Dollymount, Dollymount Park","53.3622913896674","-6.17918587611664"
"8220DB001727","Dollymount, Kincora Road","53.3606039737063","-6.182878901226"
"8220DB001728","Dollymount, Conquer Hill Road","53.3596562743545","-6.18616459625132"
"8220DB001729","Dollymount, Clontarf Bus Garage","53.358496905837","-6.19031550974054"
"8220DB001730","Dollymount, Vernon Court","53.3582310907412","-6.19412792894392"
"8220DB001731","Clontarf, Clontarf Road at Church","53.3590767534187","-6.19655620427267"
"8220DB001732","Clontarf, Oultan Road","53.3600629107601","-6.20234423812554"
"8220DB001733","Clontarf, Clontarf Road (near Scoil Uí Chonaill)","53.3602126155145","-6.20631955975878"
"8220DB001734","Clontarf, Clontarf Road (Castle Avenue)","53.3603909611114","-6.21101490848611"
"8220DB001735","Clontarf, Styles Road","53.3611433270906","-6.21443920712788"
"8220DB001736","Clontarf, Saint Lawrence Road","53.3621421815528","-6.21692174662785"
"8220DB001737","Clontarf Road Junction Strandville Avenu","53.3628580243648","-6.21971672090975"
"8220DB001738","Clontarf Road Junction Alfie Byrne Road","53.3634508756356","-6.22391433414591"
"8220DB001739","Marino, Clontarf Road (at DART Station)","53.3638851946309","-6.22652585924791"
"8220DB001740","Marino, Clontarf Road (at DART Station)","53.3641416167462","-6.22684578734131"
"8220DB001741","Clontarf Road Junction Strandville Avenu","53.3631169030858","-6.22080282346914"
"8220DB001742","Clontarf, Saint Lawrence Road","53.3621257933153","-6.21642658486162"
"8220DB001743","Clontarf, Styles Road","53.3611356864305","-6.21392866651198"
"8220DB001744","Clontarf, Clontarf Road (Castle Avenue)","53.3603486398948","-6.20879297700679"
"8220DB001745","Clontarf, Clontarf Road (near Scoil Uí Chonaill)","53.3603470796607","-6.20569788496817"
"8220DB001746","Clontarf, Oultan Road","53.3602565190474","-6.20266663792763"
"8220DB001747","Clontarf, Clontarf Road at Church","53.3593509922733","-6.19686014145276"
"8220DB001748","Dollymount, Vernon Court","53.3582570201128","-6.19346576182192"
"8220DB001749","Dollymount, Clontarf Bus Garage","53.3585903733484","-6.1905519401528"
"8220DB001750","Raheny, Thornhill Lane","53.3688677027256","-6.17780832862968"
"8220DB001751","Dollymount, Conquer Hill Road","53.3598127073624","-6.18581237884226"
"8220DB001752","Dollymount, Seaview Point","53.3611275917068","-6.18184991858566"
"8220DB001753","Dollymount, Dollymount Park","53.3621186154932","-6.17964401564799"
"8220DB001754","Dollymount, Dollymount Avenue","53.3641156564687","-6.1768090335747"
"8220DB001755","Dollymount, Seapark Apartments","53.366429976972","-6.18712407524492"
"8220DB001756","Dollymount, Mount Prospect Ave (Dollymount Ave)","53.3672099080423","-6.18285319862788"
"8220DB001757","Raheny, Park Lawn","53.3686296418871","-6.18223672762261"
"8220DB001758","Dollymount, Baymount Park","53.3681296759012","-6.17539029232827"
"8220DB001759","Dollymount, Clontarf Road (near Mount Prospect Ave)","53.3660002227298","-6.17426410843031"
"8220DB001760","Dollymount, Seapark Road (Mount Prospect Avenue)","53.3659722446511","-6.18775962192309"
"8220DB001761","Seapark Road (Seafield Road)","53.3638373979427","-6.18804557985468"
"8220DB001762","Dollymount, Seafield Road East (Seafield Avenue)","53.3637511873678","-6.19124983539217"
"8220DB001763","Dollymount, Vernon Avenue","53.3644067789412","-6.19536937525239"
"8220DB001764","Clontarf, Black Heath Court","53.3658929687427","-6.19557704044883"
"8220DB001765","Clontarf, Blackheath Grove","53.3665514240798","-6.20228141366141"
"8220DB001767","Clontarf, Clontarf Castle","53.3638273181033","-6.20522105323393"
"8220DB001769","Raheny, Park Lawn","53.3688857835692","-6.18194028646479"
"8220DB001770","Dollymount, Mount Prospect Avenue","53.367083468779","-6.18281349818964"
"8220DB001771","Dollymount, Saint Gabriel's Road","53.3660419203317","-6.18524714015886"
"8220DB001772","Clontarf, Saint John The Baptist Cemetery","53.3650107475139","-6.20502103771963"
"8220DB001773","Clontarf, Blackheath Park","53.3668109134426","-6.20339753583734"
"8220DB001774","Clontarf, Blackheath Park (Blackheath Avenue)","53.3661362371214","-6.19740006471563"
"8220DB001775","Dollymount, Vernon Avenue","53.3644399833339","-6.19518765370067"
"8220DB001776","Dollymount, Seafield Road East (Seafield Avenue)","53.3638160053874","-6.19196835160384"
"8220DB001777","Dollymount, Seafield Avenue","53.3653120792154","-6.1910484659595"
"8220DB001778","Dollymount, Mount Prospect Avenue (Mount Prospect Park)","53.3666136880704","-6.18915998517225"
"8220DB001782","Artane, Gracefield Road","53.3823894993402","-6.19817165074133"
"8220DB001783","Artane, Saint Brendan's School","53.3838032158922","-6.19596218165506"
"8220DB001784","Coolock, Gorsefield Court","53.384620981283","-6.19298101335646"
"8220DB001785","Harmonstown, McAuley Drive","53.3825960633072","-6.19162361492977"
"8220DB001786","Harmonstown, Ribh Road","53.3819941363959","-6.19223540172876"
"8220DB001788","Edenmore, Millbrook Road (Tonlegee Road)","53.391614051062","-6.17880643395275"
"8220DB001789","Edenmore, Millbrook Road","53.3942624574249","-6.17860311918021"
"8220DB001791","Edenmore, GAA Sports Ground","53.3965874453453","-6.18194749011522"
"8220DB001792","Edenmore, Millbrook Road","53.3935247615054","-6.17855943972057"
"8220DB001793","Edenmore, Millbrook Road (Tonlegee Road)","53.3916843046716","-6.17869818119338"
"8220DB001794","Raheny, Thornhill Lane","53.3694410695083","-6.17945199515198"
"8220DB001795","Cabra, Cabra Road","53.3615033956228","-6.29686814224356"
"8220DB001796","Harmonstown, McAuley Park","53.38178934558","-6.19117676197823"
"8220DB001797","Harmonstown, McAuley Drive","53.3831278453854","-6.19172134030205"
"8220DB001798","Artane, Ainninn Drive","53.3843839100381","-6.19453950864013"
"8220DB001799","Artane, Mask Crescent","53.3830586828355","-6.19665511759705"
"8220DB001800","Artane, Gracefield Road","53.3823067907417","-6.19924247171126"
"8220DB001801","Artane, Gracefield Road","53.3823969984385","-6.20224522816109"
"8220DB001802","Cabra East, Cabra Road (Carnlough Road)","53.3613803234407","-6.29454414549563"
"8220DB001803","Cabra East, Cabra Road (Carnlough Road)","53.3615635987038","-6.29416119396322"
"8220DB001804","Cabra, Cabra Road","53.3616973947104","-6.29723603716658"
"8220DB001805","Cabra, Dunard Estate","53.361162703908","-6.29755786085374"
"8220DB001806","Cabra, Navan Road","53.3629069059087","-6.30264214209815"
"8220DB001807","Ashtown, Navan Road (Old Race Course)","53.3744144643082","-6.33926288340455"
"8220DB001847","Ashtown, Navan Road (Old Race Course)","53.3749277583846","-6.33997937443399"
"8220DB001905","Cabra, Navan Road","53.3633746469215","-6.30329971300526"
"8220DB001906","Cabra, Cabra Cross","53.3612007620203","-6.29707553938411"
"8220DB001907","Cabra East, Railway Bridge","53.3599049453531","-6.29382178508836"
"8220DB001908","Cabra East, Cabra Drive","53.3586907975484","-6.29125607276843"
"8220DB001909","Arbour Hill, Prussia Street","53.356960263151","-6.28841072316956"
"8220DB001911","Arbour Hill, Prussia Street","53.3566345096131","-6.28825851915213"
"8220DB001913","Cabra East, Cabra Drive","53.358806332072","-6.29179232473619"
"8220DB001914","Cabra East, Old Cabra Road","53.3602157626895","-6.29481602746614"
"8220DB001934","Temple Bar, Dame Street","53.3442905615546","-6.26562346920162"
"8220DB001935","Dublin City South, Carnegie Centre","53.3439343462159","-6.26832635157409"
"8220DB001937","Liberties, High Street","53.3430874992184","-6.27315167433484"
"8220DB001938","Liberties, Thomas Street (John Street)","53.3429778949688","-6.27676060847678"
"8220DB001939","Liberties, Thomas Street (St. Catherine's Lane)","53.3429982683414","-6.2806646665428"
"8220DB001940","James's Gate, James Street","53.3435386006474","-6.28573434793232"
"8220DB001941","James's Gate, James Street","53.3433454019831","-6.28918142026463"
"8220DB001942","Kilmainham, Saint James Hospital","53.3422549833993","-6.29463172936893"
"8220DB001943","Kilmainham, Mount Brown","53.3413732636991","-6.29834636571317"
"8220DB001944","Kilmainham, Old Kilmainham","53.3406753265043","-6.3036154053404"
"8220DB001945","Inchicore, Emmett Road","53.3405547841693","-6.30968740041896"
"8220DB001946","Inchicore, Emmet Road","53.3401188049318","-6.3163574768868"
"8220DB001947","Kilmainham, Emmet Road","53.3398178565031","-6.31796119520697"
"8220DB001948","Dublin (Inchicore Tesco)","53.3386619960474","-6.32204630155487"
"8220DB001949","Inchicore, Tyrconnell Road","53.3376414795987","-6.32361808034677"
"8220DB001950","Inchicore, Church","53.3360210442473","-6.32599413397449"
"8220DB001951","Bluebell (Dublin City), Lansdowne Valley Park","53.3331348380325","-6.32912521917047"
"8220DB001952","Bluebell (Dublin City), Lansdowne Valley Park","53.3315505498817","-6.33023816806491"
"8220DB001953","Bluebell, Entrance to Bluebell","53.3299944994922","-6.33208562071694"
"8220DB001954","Bluebell, Naas Road","53.3287741741428","-6.33480565905477"
"8220DB001955","Bluebell (Dublin City), Carriglea Industrial Estate","53.327945707171","-6.3379156633768"
"8220DB001956","Dublin (Kylemore Rd FBD)","53.3263654179245","-6.34384709401736"
"8220DB001981","Bluebell, Naas Road (Kylemore Road)","53.3264867532132","-6.34481822747156"
"8220DB001982","Bluebell, Naas Road (Kylemore Road)","53.3272299503082","-6.34202704890607"
"8220DB001984","Bluebell, Naas Road","53.3294445318954","-6.33389372947138"
"8220DB001985","Bluebell (Dublin City), Lansdowne Valley Park","53.3329236566366","-6.32944879131458"
"8220DB001986","Inchicore, Tyrconnell Road","53.3353553796487","-6.32723649887249"
"8220DB001987","Inchicore, Oblate of Mary Immaculate Church","53.3362899055526","-6.32593855473876"
"8220DB001988","Inchicore, Oblate Church","53.3382603815004","-6.3228880049336"
"8220DB001989","Inchicore, Camac Close","53.3397064788455","-6.31898677046978"
"8220DB001990","Inchicore, Emmet Road","53.340472781795","-6.31469157313953"
"8220DB001992","Inchicore, Emmett Road","53.3406544981518","-6.30911277701976"
"8220DB001993","Kilmainham, Old Kilmainham","53.3408536613927","-6.30477972664047"
